date;NMEA_rover;NMEA_corrected;NMEA_base;tether_length;compass;depth;accuracy
2023-01-24 18:04:21.169;$GNGGA,170421.000,5102.13821,N,01344.15745,E,1,15,0.90,106.3,M,44.5,M,,*70;$GNGGA,170421.000,05102.1382,N,01344.1575,E,2,15,0.90,106.3,M,44.5,M,,*46;0;0.0035126971360887947;81.0;0.0;3.150000016452054
2023-01-24 18:04:22.162;$GNGGA,170422.000,5102.13822,N,01344.15745,E,1,14,0.95,106.3,M,44.5,M,,*74;$GNGGA,170422.000,05102.1382,N,01344.1575,E,2,14,0.95,106.3,M,44.5,M,,*41;0;0.0035383372611697346;81.0;0.0;3.1500000166931064
2023-01-24 18:04:23.306;$GNGGA,170423.000,5102.13821,N,01344.15745,E,1,14,0.95,106.3,M,44.5,M,,*76;$GNGGA,170423.000,05102.1382,N,01344.1575,E,2,14,0.95,106.3,M,44.5,M,,*40;0;0.0035126971360887947;81.0;0.0;3.150000016452054
2023-01-24 18:04:24.188;$GNGGA,170424.000,5102.13821,N,01344.15746,E,1,14,0.95,106.3,M,44.5,M,,*72;$GNGGA,170424.000,05102.1382,N,01344.1575,E,2,14,0.95,106.3,M,44.5,M,,*47;0;0.0035383372611697346;81.0;0.0;3.150000016452054
2023-01-24 18:04:25.209;$GNGGA,170425.000,5102.13820,N,01344.15745,E,1,14,0.95,106.3,M,44.5,M,,*71;$GNGGA,170425.000,05102.1382,N,01344.1575,E,2,14,0.95,106.3,M,44.5,M,,*46;0;0.0035126971360887947;81.0;0.0;3.1500000166931064
2023-01-24 18:04:26.275;$GNGGA,170426.000,5102.13820,N,01344.15745,E,1,14,0.95,106.3,M,44.5,M,,*72;$GNGGA,170426.000,05102.1382,N,01344.1575,E,2,14,0.95,106.3,M,44.5,M,,*45;0;0.0035126971360887947;81.0;0.0;3.150000016452054
2023-01-24 18:04:27.434;$GNGGA,170427.000,5102.13820,N,01344.15744,E,1,20,0.65,106.3,M,44.5,M,,*7A;$GNGGA,170427.000,05102.1382,N,01344.1574,E,2,20,0.65,106.3,M,44.5,M,,*4D;0;0.0035126971360887947;81.0;0.0;3.150000016452054
2023-01-24 18:04:29.310;$GNGGA,170429.000,5102.13817,N,01344.15727,E,1,15,0.89,106.3,M,44.5,M,,*71;$GNGGA,170429.000,05102.1382,N,01344.1573,E,2,15,0.89,106.3,M,44.5,M,,*40;0;0.0035126971360887947;81.0;0.0;3.150000016452054
2023-01-24 18:04:30.164;$GNGGA,170430.000,5102.13816,N,01344.15716,E,1,19,0.68,106.3,M,44.5,M,,*79;$GNGGA,170430.000,05102.1382,N,01344.1572,E,2,19,0.68,106.3,M,44.5,M,,*4A;0;0.0035126971360887947;81.0;0.0;3.150000016452054
2023-01-24 18:04:31.149;$GNGGA,170431.000,5102.13816,N,01344.15715,E,1,19,0.68,106.3,M,44.5,M,,*7B;$GNGGA,170431.000,05102.1382,N,01344.1572,E,2,19,0.68,106.3,M,44.5,M,,*4B;0;0.0035126971360887947;81.0;0.0;3.150000016452054
2023-01-24 18:04:32.380;$GNGGA,170432.000,5102.13816,N,01344.15715,E,1,19,0.68,106.3,M,44.5,M,,*78;$GNGGA,170432.000,05102.1382,N,01344.1572,E,2,19,0.68,106.3,M,44.5,M,,*48;0;0.0035126971360887947;81.0;0.0;3.1500000166931064
2023-01-24 18:04:35.162;$GNGGA,170435.000,5102.13815,N,01344.15713,E,1,19,0.68,106.4,M,44.5,M,,*7D;$GNGGA,170435.000,05102.1381,N,01344.1571,E,2,19,0.68,106.4,M,44.5,M,,*48;0;0.0035126971360887947;81.0;0.0;3.150000016452054
2023-01-24 18:04:36.205;$GNGGA,170436.000,5102.13814,N,01344.15712,E,1,21,0.64,106.4,M,44.5,M,,*79;$GNGGA,170436.000,05102.1381,N,01344.1571,E,2,21,0.64,106.4,M,44.5,M,,*4C;0;0.0035126971360887947;81.0;0.0;3.150000016452054
2023-01-24 18:04:37.224;$GNGGA,170437.000,5102.13814,N,01344.15711,E,1,20,0.65,106.4,M,44.5,M,,*7B;$GNGGA,170437.000,05102.1381,N,01344.1571,E,2,20,0.65,106.4,M,44.5,M,,*4D;0;0.0035126971360887947;81.0;0.0;3.150000016452054
2023-01-24 18:04:38.237;$GNGGA,170438.000,5102.13813,N,01344.15710,E,1,21,0.61,106.5,M,44.5,M,,*76;$GNGGA,170438.000,05102.1381,N,01344.1571,E,2,21,0.61,106.5,M,44.5,M,,*46;0;0.0035126971360887947;81.0;0.0;3.150000016452054
2023-01-24 18:04:39.179;$GNGGA,170439.000,5102.13811,N,01344.15710,E,1,23,0.59,106.5,M,44.5,M,,*7C;$GNGGA,170439.000,05102.1381,N,01344.1571,E,2,23,0.59,106.5,M,44.5,M,,*4E;0;0.0035126971360887947;81.0;0.0;3.150000016452054
2023-01-24 18:04:40.192;$GNGGA,170440.000,5102.13810,N,01344.15710,E,1,23,0.59,106.5,M,44.5,M,,*73;$GNGGA,170440.000,05102.1381,N,01344.1571,E,2,23,0.59,106.5,M,44.5,M,,*40;0;0.0035383372611697346;81.0;0.0;3.1500000166931064
2023-01-24 18:04:41.298;$GNGGA,170441.000,5102.13809,N,01344.15709,E,1,22,0.61,106.6,M,44.5,M,,*7B;$GNGGA,170441.000,05102.1381,N,01344.1571,E,2,22,0.61,106.6,M,44.5,M,,*48;0;0.0035126971360887947;81.0;0.0;3.1500000166931064
2023-01-24 18:04:43.167;$GNGGA,170443.000,5102.13807,N,01344.15709,E,1,21,0.62,106.6,M,44.5,M,,*77;$GNGGA,170443.000,05102.1381,N,01344.1571,E,2,21,0.62,106.6,M,44.5,M,,*4A;0;0.0035383372611697346;81.0;0.0;3.150000016452054
2023-01-24 18:04:44.301;$GNGGA,170444.000,5102.13805,N,01344.15709,E,1,21,0.62,106.7,M,44.5,M,,*73;$GNGGA,170444.000,05102.1380,N,01344.1571,E,2,21,0.62,106.7,M,44.5,M,,*4D;0;0.0035126971360887947;81.0;0.0;3.150000016452054
2023-01-24 18:04:46.784;$GNGGA,170446.000,5102.13804,N,01344.15709,E,1,21,0.62,106.7,M,44.5,M,,*70;$GNGGA,170446.000,05102.1380,N,01344.1571,E,2,21,0.62,106.7,M,44.5,M,,*4F;0;0.0035126971360887947;81.0;0.0;3.1500000166931064
2023-01-24 18:04:49.236;$GNGGA,170449.000,5102.13799,N,01344.15710,E,1,21,0.63,106.7,M,44.5,M,,*7D;$GNGGA,170449.000,05102.1380,N,01344.1571,E,2,21,0.63,106.7,M,44.5,M,,*41;0;0.0035126971360887947;81.0;0.0;3.150000016452054
2023-01-24 18:04:50.276;$GNGGA,170450.000,5102.13797,N,01344.15707,E,1,16,0.79,106.8,M,44.5,M,,*7D;$GNGGA,170450.000,05102.1380,N,01344.1571,E,2,16,0.79,106.8,M,44.5,M,,*49;0;0.0035126971360887947;81.0;0.0;3.150000016452054
2023-01-24 18:04:51.207;$GNGGA,170451.000,5102.13796,N,01344.15708,E,1,21,0.63,106.8,M,44.5,M,,*7D;$GNGGA,170451.000,05102.1380,N,01344.1571,E,2,21,0.63,106.8,M,44.5,M,,*47;0;0.0035383372611697346;81.0;0.0;3.1500000166931064
2023-01-24 18:04:52.217;$GNGGA,170452.000,5102.13794,N,01344.15705,E,1,21,0.63,106.8,M,44.5,M,,*71;$GNGGA,170452.000,05102.1379,N,01344.1571,E,2,21,0.63,106.8,M,44.5,M,,*42;0;0.0035126971360887947;81.0;0.0;3.150000016452054
2023-01-24 18:04:53.307;$GNGGA,170453.000,5102.13792,N,01344.15704,E,1,22,0.62,106.8,M,44.5,M,,*75;$GNGGA,170453.000,05102.1379,N,01344.1570,E,2,22,0.62,106.8,M,44.5,M,,*40;0;0.0035126971360887947;81.0;0.0;3.150000016452054
2023-01-24 18:04:55.157;$GNGGA,170455.000,5102.13789,N,01344.15704,E,1,20,0.64,106.9,M,44.5,M,,*7C;$GNGGA,170455.000,05102.1379,N,01344.1570,E,2,20,0.64,106.9,M,44.5,M,,*43;0;0.0035126971360887947;81.0;0.0;3.150000016452054
2023-01-24 18:04:56.288;$GNGGA,170456.000,5102.13788,N,01344.15706,E,1,21,0.61,106.9,M,44.5,M,,*78;$GNGGA,170456.000,05102.1379,N,01344.1571,E,2,21,0.61,106.9,M,44.5,M,,*45;0;0.0035126971360887947;81.0;0.0;3.150000016452054
2023-01-24 18:04:57.223;$GNGGA,170457.000,5102.13787,N,01344.15706,E,1,22,0.60,107.0,M,44.5,M,,*7C;$GNGGA,170457.000,05102.1379,N,01344.1571,E,2,22,0.60,107.0,M,44.5,M,,*4E;0;0.0035383372611697346;81.0;0.0;3.150000016452054
2023-01-24 18:04:58.155;$GNGGA,170458.000,5102.13787,N,01344.15706,E,1,19,0.67,107.0,M,44.5,M,,*7C;$GNGGA,170458.000,05102.1379,N,01344.1571,E,2,19,0.67,107.0,M,44.5,M,,*4E;0;0.0035126971360887947;81.0;0.0;3.150000016452054
2023-01-24 18:04:59.345;$GNGGA,170459.000,5102.13787,N,01344.15706,E,1,21,0.61,107.0,M,44.5,M,,*70;$GNGGA,170459.000,05102.1379,N,01344.1571,E,2,21,0.61,107.0,M,44.5,M,,*42;0;0.0035126971360887947;81.0;0.0;3.150000016452054
2023-01-24 18:05:01.161;$GNGGA,170501.000,5102.13786,N,01344.15706,E,1,22,0.60,107.2,M,44.5,M,,*7D;$GNGGA,170501.000,05102.1379,N,01344.1571,E,2,22,0.60,107.2,M,44.5,M,,*4E;0;0.0035126971360887947;81.0;0.0;3.150000016452054
2023-01-24 18:05:02.340;$GNGGA,170502.000,5102.13786,N,01344.15707,E,1,17,0.77,107.2,M,44.5,M,,*7F;$GNGGA,170502.000,05102.1379,N,01344.1571,E,2,17,0.77,107.2,M,44.5,M,,*4D;0;0.0035126971360887947;81.0;0.0;3.150000016452054
2023-01-24 18:05:03.233;$GNGGA,170503.000,5102.13786,N,01344.15707,E,1,20,0.65,107.3,M,44.5,M,,*78;$GNGGA,170503.000,05102.1379,N,01344.1571,E,2,20,0.65,107.3,M,44.5,M,,*4A;0;0.0035383372611697346;81.0;0.0;3.150000016452054
2023-01-24 18:05:05.217;$GNGGA,170505.000,5102.13786,N,01344.15707,E,1,17,0.77,107.4,M,44.5,M,,*7E;$GNGGA,170505.000,05102.1379,N,01344.1571,E,2,17,0.77,107.4,M,44.5,M,,*4C;0;0.0035126971360887947;81.0;0.0;3.150000016452054
2023-01-24 18:05:07.244;$GNGGA,170507.000,5102.13787,N,01344.15706,E,1,22,0.62,107.5,M,44.5,M,,*7F;$GNGGA,170507.000,05102.1379,N,01344.1571,E,2,22,0.62,107.5,M,44.5,M,,*4D;0;0.0035126971360887947;81.0;0.0;3.150000016452054
2023-01-24 18:05:08.229;$GNGGA,170508.000,5102.13787,N,01344.15704,E,1,22,0.62,107.6,M,44.5,M,,*71;$GNGGA,170508.000,05102.1379,N,01344.1570,E,2,22,0.62,107.6,M,44.5,M,,*40;0;0.0035126971360887947;81.0;0.0;3.150000016452054
2023-01-24 18:05:09.200;$GNGGA,170509.000,5102.13787,N,01344.15702,E,1,22,0.61,107.6,M,44.5,M,,*75;$GNGGA,170509.000,05102.1379,N,01344.1570,E,2,22,0.61,107.6,M,44.5,M,,*42;0;0.0035383372611697346;81.0;0.0;3.1500000166931064
2023-01-24 18:05:10.202;$GNGGA,170510.000,5102.13787,N,01344.15701,E,1,22,0.61,107.7,M,44.5,M,,*7F;$GNGGA,170510.000,05102.1379,N,01344.1570,E,2,22,0.61,107.7,M,44.5,M,,*4B;0;0.0035126971360887947;81.0;0.0;3.1500000166931064
2023-01-24 18:05:11.304;$GNGGA,170511.000,5102.13786,N,01344.15700,E,1,21,0.63,107.7,M,44.5,M,,*7F;$GNGGA,170511.000,05102.1379,N,01344.1570,E,2,21,0.63,107.7,M,44.5,M,,*4B;0;0.003487057011007855;81.0;0.0;3.150000016452054
2023-01-24 18:05:13.153;$GNGGA,170513.000,5102.13786,N,01344.15701,E,1,21,0.63,107.9,M,44.5,M,,*72;$GNGGA,170513.000,05102.1379,N,01344.1570,E,2,21,0.63,107.9,M,44.5,M,,*47;0;0.0035126971360887947;81.0;0.0;3.150000016452054
2023-01-24 18:05:14.298;$GNGGA,170514.000,5102.13786,N,01344.15701,E,1,21,0.63,107.9,M,44.5,M,,*75;$GNGGA,170514.000,05102.1379,N,01344.1570,E,2,21,0.63,107.9,M,44.5,M,,*40;0;0.0035126971360887947;81.0;0.0;3.150000016452054
2023-01-24 18:05:16.169;$GNGGA,170516.000,5102.13786,N,01344.15697,E,1,21,0.62,108.2,M,44.5,M,,*7C;$GNGGA,170516.000,05102.1379,N,01344.1570,E,2,21,0.62,108.2,M,44.5,M,,*47;0;0.0035126971360887947;81.0;0.0;3.150000016452054
2023-01-24 18:05:17.350;$GNGGA,170517.000,5102.13787,N,01344.15696,E,1,21,0.62,108.3,M,44.5,M,,*7C;$GNGGA,170517.000,05102.1379,N,01344.1570,E,2,21,0.62,108.3,M,44.5,M,,*47;0;0.0035383372611697346;81.0;0.0;3.150000016452054
2023-01-24 18:05:19.159;$GNGGA,170519.000,5102.13789,N,01344.15693,E,1,20,0.64,108.5,M,44.5,M,,*78;$GNGGA,170519.000,05102.1379,N,01344.1569,E,2,20,0.64,108.5,M,44.5,M,,*40;0;0.0035126971360887947;81.0;0.0;3.150000016452054
2023-01-24 18:05:20.304;$GNGGA,170520.000,5102.13791,N,01344.15692,E,1,20,0.64,108.6,M,44.5,M,,*79;$GNGGA,170520.000,05102.1379,N,01344.1569,E,2,20,0.64,108.6,M,44.5,M,,*49;0;0.0035383372611697346;81.0;0.0;3.150000016452054
2023-01-24 18:05:22.156;$GNGGA,170522.000,5102.13793,N,01344.15688,E,1,19,0.67,108.8,M,44.5,M,,*75;$GNGGA,170522.000,05102.1379,N,01344.1569,E,2,19,0.67,108.8,M,44.5,M,,*4C;0;0.0035126971360887947;81.0;0.0;3.1500000166931064
2023-01-24 18:05:23.346;$GNGGA,170523.000,5102.13793,N,01344.15686,E,1,21,0.62,108.9,M,44.5,M,,*75;$GNGGA,170523.000,05102.1379,N,01344.1569,E,2,21,0.62,108.9,M,44.5,M,,*42;0;0.0035126971360887947;81.0;0.0;3.1500000166931064
2023-01-24 18:05:25.168;$GNGGA,170525.000,5102.13794,N,01344.15679,E,1,19,0.67,109.0,M,44.5,M,,*72;$GNGGA,170525.000,05102.1379,N,01344.1568,E,2,19,0.67,109.0,M,44.5,M,,*43;0;0.0035126971360887947;81.0;0.0;3.150000016452054
2023-01-24 18:05:26.325;$GNGGA,170526.000,5102.13795,N,01344.15676,E,1,19,0.67,109.1,M,44.5,M,,*7E;$GNGGA,170526.000,05102.1379,N,01344.1568,E,2,19,0.67,109.1,M,44.5,M,,*41;0;0.0035126971360887947;81.0;0.0;3.150000016452054
2023-01-24 18:05:27.152;$GNGGA,170527.000,5102.13795,N,01344.15674,E,1,19,0.66,109.1,M,44.5,M,,*7C;$GNGGA,170527.000,05102.1379,N,01344.1567,E,2,19,0.66,109.1,M,44.5,M,,*4E;0;0.0035126971360887947;81.0;0.0;3.150000016452054
2023-01-24 18:05:28.172;$GNGGA,170528.000,5102.13796,N,01344.15671,E,1,19,0.66,109.1,M,44.5,M,,*75;$GNGGA,170528.000,05102.1380,N,01344.1567,E,2,19,0.66,109.1,M,44.5,M,,*47;0;0.0035126971360887947;81.0;0.0;3.150000016452054
2023-01-24 18:05:29.272;$GNGGA,170529.000,5102.13797,N,01344.15669,E,1,19,0.67,109.2,M,44.5,M,,*7E;$GNGGA,170529.000,05102.1380,N,01344.1567,E,2,19,0.67,109.2,M,44.5,M,,*44;0;0.0035126971360887947;81.0;0.0;3.150000016452054
2023-01-24 18:05:30.195;$GNGGA,170530.000,5102.13798,N,01344.15668,E,1,19,0.67,109.2,M,44.5,M,,*78;$GNGGA,170530.000,05102.1380,N,01344.1567,E,2,19,0.67,109.2,M,44.5,M,,*4C;0;0.0035126971360887947;81.0;0.0;3.150000016452054
2023-01-24 18:05:31.165;$GNGGA,170531.000,5102.13798,N,01344.15667,E,1,19,0.66,109.2,M,44.5,M,,*77;$GNGGA,170531.000,05102.1380,N,01344.1567,E,2,19,0.66,109.2,M,44.5,M,,*4C;0;0.0035126971360887947;81.0;0.0;3.150000016452054
2023-01-24 18:05:32.267;$GNGGA,170532.000,5102.13797,N,01344.15665,E,1,18,0.69,109.3,M,44.5,M,,*76;$GNGGA,170532.000,05102.1380,N,01344.1567,E,2,18,0.69,109.3,M,44.5,M,,*40;0;0.0035126971360887947;81.0;0.0;3.150000016452054
2023-01-24 18:05:33.213;$GNGGA,170533.000,5102.13797,N,01344.15665,E,1,18,0.69,109.3,M,44.5,M,,*77;$GNGGA,170533.000,05102.1380,N,01344.1567,E,2,18,0.69,109.3,M,44.5,M,,*41;0;0.0035383372611697346;81.0;0.0;3.150000016452054
2023-01-24 18:05:34.178;$GNGGA,170534.000,5102.13796,N,01344.15662,E,1,20,0.63,109.4,M,44.5,M,,*70;$GNGGA,170534.000,05102.1380,N,01344.1566,E,2,20,0.63,109.4,M,44.5,M,,*41;0;0.0035126971360887947;81.0;0.0;3.150000016452054
2023-01-24 18:05:35.262;$GNGGA,170535.000,5102.13796,N,01344.15660,E,1,19,0.66,109.4,M,44.5,M,,*7C;$GNGGA,170535.000,05102.1380,N,01344.1566,E,2,19,0.66,109.4,M,44.5,M,,*4F;0;0.0035126971360887947;81.0;0.0;3.150000016452054
2023-01-24 18:05:37.156;$GNGGA,170537.000,5102.13794,N,01344.15655,E,1,21,0.62,109.6,M,44.5,M,,*77;$GNGGA,170537.000,05102.1379,N,01344.1566,E,2,21,0.62,109.6,M,44.5,M,,*46;0;0.0035126971360887947;81.0;0.0;3.150000016452054
2023-01-24 18:05:38.314;$GNGGA,170538.000,5102.13793,N,01344.15655,E,1,21,0.62,109.6,M,44.5,M,,*7F;$GNGGA,170538.000,05102.1379,N,01344.1566,E,2,21,0.62,109.6,M,44.5,M,,*49;0;0.0035126971360887947;81.0;0.0;3.150000016452054
2023-01-24 18:05:39.197;$GNGGA,170539.000,5102.13793,N,01344.15655,E,1,20,0.66,109.7,M,44.5,M,,*7A;$GNGGA,170539.000,05102.1379,N,01344.1566,E,2,20,0.66,109.7,M,44.5,M,,*4C;0;0.0035126971360887947;81.0;0.0;3.150000016452054
2023-01-24 18:05:40.181;$GNGGA,170540.000,5102.13792,N,01344.15654,E,1,21,0.64,109.8,M,44.5,M,,*78;$GNGGA,170540.000,05102.1379,N,01344.1565,E,2,21,0.64,109.8,M,44.5,M,,*4D;0;0.0035126971360887947;81.0;0.0;3.150000016452054
2023-01-24 18:05:41.305;$GNGGA,170541.000,5102.13791,N,01344.15653,E,1,21,0.64,109.8,M,44.5,M,,*7D;$GNGGA,170541.000,05102.1379,N,01344.1565,E,2,21,0.64,109.8,M,44.5,M,,*4C;0;0.0035383372611697346;81.0;0.0;3.1500000166931064
2023-01-24 18:05:43.184;$GNGGA,170543.000,5102.13791,N,01344.15650,E,1,21,0.63,110.0,M,44.5,M,,*7B;$GNGGA,170543.000,05102.1379,N,01344.1565,E,2,21,0.63,110.0,M,44.5,M,,*49;0;0.0035383372611697346;81.0;0.0;3.150000016452054
2023-01-24 18:05:44.307;$GNGGA,170544.000,5102.13790,N,01344.15648,E,1,21,0.63,110.1,M,44.5,M,,*75;$GNGGA,170544.000,05102.1379,N,01344.1565,E,2,21,0.63,110.1,M,44.5,M,,*4F;0;0.0035126971360887947;81.0;0.0;3.1500000166931064
2023-01-24 18:05:45.223;$GNGGA,170545.000,5102.13791,N,01344.15647,E,1,22,0.61,110.2,M,44.5,M,,*78;$GNGGA,170545.000,05102.1379,N,01344.1565,E,2,22,0.61,110.2,M,44.5,M,,*4C;0;0.0035126971360887947;81.0;0.0;3.150000016452054
2023-01-24 18:05:46.223;$GNGGA,170546.000,5102.13792,N,01344.15645,E,1,16,0.81,110.3,M,44.5,M,,*72;$GNGGA,170546.000,05102.1379,N,01344.1565,E,2,16,0.81,110.3,M,44.5,M,,*47;0;0.0035126971360887947;81.0;0.0;3.150000016452054
2023-01-24 18:05:47.262;$GNGGA,170547.000,5102.13793,N,01344.15642,E,1,20,0.65,110.3,M,44.5,M,,*7A;$GNGGA,170547.000,05102.1379,N,01344.1564,E,2,20,0.65,110.3,M,44.5,M,,*48;0;0.0035126971360887947;81.0;0.0;3.150000016452054
2023-01-24 18:05:48.230;$GNGGA,170548.000,5102.13795,N,01344.15639,E,1,20,0.65,110.4,M,44.5,M,,*78;$GNGGA,170548.000,05102.1379,N,01344.1564,E,2,20,0.65,110.4,M,44.5,M,,*40;0;0.0035126971360887947;81.0;0.0;3.150000016452054
2023-01-24 18:05:49.167;$GNGGA,170549.000,5102.13797,N,01344.15635,E,1,21,0.62,110.4,M,44.5,M,,*71;$GNGGA,170549.000,05102.1380,N,01344.1564,E,2,21,0.62,110.4,M,44.5,M,,*41;0;0.0035383372611697346;81.0;0.0;3.150000016452054
2023-01-24 18:05:50.318;$GNGGA,170550.000,5102.13798,N,01344.15630,E,1,21,0.62,110.5,M,44.5,M,,*72;$GNGGA,170550.000,05102.1380,N,01344.1563,E,2,21,0.62,110.5,M,44.5,M,,*4F;0;0.0035126971360887947;81.0;0.0;3.150000016452054
2023-01-24 18:05:52.160;$GNGGA,170552.000,5102.13797,N,01344.15623,E,1,20,0.64,110.6,M,44.5,M,,*79;$GNGGA,170552.000,05102.1380,N,01344.1562,E,2,20,0.64,110.6,M,44.5,M,,*48;0;0.0035126971360887947;81.0;0.0;3.150000016452054
2023-01-24 18:05:53.328;$GNGGA,170553.000,5102.13796,N,01344.15620,E,1,21,0.63,110.7,M,44.5,M,,*7D;$GNGGA,170553.000,05102.1380,N,01344.1562,E,2,21,0.63,110.7,M,44.5,M,,*4E;0;0.0035383372611697346;81.0;0.0;3.150000016452054
2023-01-24 18:05:55.170;$GNGGA,170555.000,5102.13792,N,01344.15613,E,1,18,0.71,110.7,M,44.5,M,,*76;$GNGGA,170555.000,05102.1379,N,01344.1561,E,2,18,0.71,110.7,M,44.5,M,,*44;0;0.0035126971360887947;81.0;0.0;3.150000016452054
2023-01-24 18:05:56.329;$GNGGA,170556.000,5102.13790,N,01344.15610,E,1,18,0.71,110.8,M,44.5,M,,*7B;$GNGGA,170556.000,05102.1379,N,01344.1561,E,2,18,0.71,110.8,M,44.5,M,,*48;0;0.0035126971360887947;81.0;0.0;3.150000016452054
2023-01-24 18:05:57.157;$GNGGA,170557.000,5102.13789,N,01344.15608,E,1,18,0.71,110.7,M,44.5,M,,*74;$GNGGA,170557.000,05102.1379,N,01344.1561,E,2,18,0.71,110.7,M,44.5,M,,*46;0;0.0035126971360887947;81.0;0.0;3.1500000166931064
2023-01-24 18:05:58.188;$GNGGA,170558.000,5102.13788,N,01344.15607,E,1,19,0.69,110.7,M,44.5,M,,*7D;$GNGGA,170558.000,05102.1379,N,01344.1561,E,2,19,0.69,110.7,M,44.5,M,,*41;0;0.0035126971360887947;81.0;0.0;3.150000016452054
2023-01-24 18:05:59.272;$GNGGA,170559.000,5102.13786,N,01344.15605,E,1,19,0.69,110.7,M,44.5,M,,*70;$GNGGA,170559.000,05102.1379,N,01344.1561,E,2,19,0.69,110.7,M,44.5,M,,*40;0;0.0035126971360887947;81.0;0.0;3.150000016452054
2023-01-24 18:06:00.156;$GNGGA,170600.000,5102.13786,N,01344.15603,E,1,19,0.69,110.7,M,44.5,M,,*79;$GNGGA,170600.000,05102.1379,N,01344.1560,E,2,19,0.69,110.7,M,44.5,M,,*4E;0;0.0035126971360887947;81.0;0.0;3.150000016452054
2023-01-24 18:06:02.237;$GNGGA,170602.000,5102.13784,N,01344.15599,E,1,19,0.68,110.7,M,44.5,M,,*78;$GNGGA,170602.000,05102.1378,N,01344.1560,E,2,19,0.68,110.7,M,44.5,M,,*4C;0;0.0035126971360887947;81.0;0.0;3.1500000166931064
2023-01-24 18:06:05.194;$GNGGA,170605.000,5102.13783,N,01344.15595,E,1,21,0.66,110.8,M,44.5,M,,*7E;$GNGGA,170605.000,05102.1378,N,01344.1560,E,2,21,0.66,110.8,M,44.5,M,,*41;0;0.0035383372611697346;81.0;0.0;3.150000016452054
2023-01-24 18:06:07.228;$GNGGA,170607.000,5102.13782,N,01344.15595,E,1,18,0.76,110.8,M,44.5,M,,*76;$GNGGA,170607.000,05102.1378,N,01344.1560,E,2,18,0.76,110.8,M,44.5,M,,*48;0;0.0035126971360887947;81.0;0.0;3.150000016452054
2023-01-24 18:06:08.249;$GNGGA,170608.000,5102.13783,N,01344.15595,E,1,21,0.66,110.8,M,44.5,M,,*73;$GNGGA,170608.000,05102.1378,N,01344.1560,E,2,21,0.66,110.8,M,44.5,M,,*4C;0;0.0035126971360887947;81.0;0.0;3.150000016452054
2023-01-24 18:06:09.195;$GNGGA,170609.000,5102.13784,N,01344.15594,E,1,18,0.76,110.8,M,44.5,M,,*7F;$GNGGA,170609.000,05102.1378,N,01344.1559,E,2,18,0.76,110.8,M,44.5,M,,*4C;0;0.0035126971360887947;81.0;0.0;3.150000016452054
2023-01-24 18:06:10.233;$GNGGA,170610.000,5102.13785,N,01344.15593,E,1,21,0.66,110.9,M,44.5,M,,*7B;$GNGGA,170610.000,05102.1378,N,01344.1559,E,2,21,0.66,110.9,M,44.5,M,,*4E;0;0.0035126971360887947;81.0;0.0;3.150000016452054
2023-01-24 18:06:11.238;$GNGGA,170611.000,5102.13786,N,01344.15592,E,1,18,0.76,110.8,M,44.5,M,,*72;$GNGGA,170611.000,05102.1379,N,01344.1559,E,2,18,0.76,110.8,M,44.5,M,,*44;0;0.0035383372611697346;81.0;0.0;3.1500000166931064
2023-01-24 18:06:12.186;$GNGGA,170612.000,5102.13787,N,01344.15591,E,1,21,0.66,110.8,M,44.5,M,,*78;$GNGGA,170612.000,05102.1379,N,01344.1559,E,2,21,0.66,110.8,M,44.5,M,,*4C;0;0.0035126971360887947;81.0;0.0;3.1500000166931064
2023-01-24 18:06:13.200;$GNGGA,170613.000,5102.13787,N,01344.15589,E,1,18,0.76,110.8,M,44.5,M,,*7B;$GNGGA,170613.000,05102.1379,N,01344.1559,E,2,18,0.76,110.8,M,44.5,M,,*46;0;0.0035126971360887947;81.0;0.0;3.150000016452054
2023-01-24 18:06:14.304;$GNGGA,170614.000,5102.13788,N,01344.15587,E,1,22,0.63,110.9,M,44.5,M,,*71;$GNGGA,170614.000,05102.1379,N,01344.1559,E,2,22,0.63,110.9,M,44.5,M,,*4D;0;0.0035126971360887947;81.0;0.0;3.1500000166931064
2023-01-24 18:06:16.169;$GNGGA,170616.000,5102.13788,N,01344.15586,E,1,21,0.66,110.9,M,44.5,M,,*74;$GNGGA,170616.000,05102.1379,N,01344.1559,E,2,21,0.66,110.9,M,44.5,M,,*49;0;0.0035383372611697346;81.0;0.0;3.150000016452054
2023-01-24 18:06:17.309;$GNGGA,170617.000,5102.13788,N,01344.15585,E,1,21,0.66,110.9,M,44.5,M,,*76;$GNGGA,170617.000,05102.1379,N,01344.1559,E,2,21,0.66,110.9,M,44.5,M,,*48;0;0.0035126971360887947;81.0;0.0;3.150000016452054
2023-01-24 18:06:18.174;$GNGGA,170618.000,5102.13788,N,01344.15584,E,1,21,0.66,110.9,M,44.5,M,,*78;$GNGGA,170618.000,05102.1379,N,01344.1558,E,2,21,0.66,110.9,M,44.5,M,,*46;0;0.0035126971360887947;81.0;0.0;3.1500000166931064
2023-01-24 18:06:19.206;$GNGGA,170619.000,5102.13787,N,01344.15583,E,1,21,0.66,110.9,M,44.5,M,,*71;$GNGGA,170619.000,05102.1379,N,01344.1558,E,2,21,0.66,110.9,M,44.5,M,,*47;0;0.0035126971360887947;81.0;0.0;3.150000016452054
2023-01-24 18:06:20.294;$GNGGA,170620.000,5102.13787,N,01344.15581,E,1,21,0.66,110.9,M,44.5,M,,*79;$GNGGA,170620.000,05102.1379,N,01344.1558,E,2,21,0.66,110.9,M,44.5,M,,*4D;0;0.0035126971360887947;81.0;0.0;3.150000016452054
2023-01-24 18:06:22.165;$GNGGA,170622.000,5102.13786,N,01344.15575,E,1,21,0.66,110.9,M,44.5,M,,*71;$GNGGA,170622.000,05102.1379,N,01344.1558,E,2,21,0.66,110.9,M,44.5,M,,*4F;0;0.0035383372611697346;81.0;0.0;3.1500000166931064
2023-01-24 18:06:23.341;$GNGGA,170623.000,5102.13784,N,01344.15572,E,1,22,0.65,111.0,M,44.5,M,,*7D;$GNGGA,170623.000,05102.1378,N,01344.1557,E,2,22,0.65,111.0,M,44.5,M,,*48;0;0.0035126971360887947;81.0;0.0;3.1500000166931064
2023-01-24 18:06:25.166;$GNGGA,170625.000,5102.13784,N,01344.15566,E,1,22,0.65,111.0,M,44.5,M,,*7E;$GNGGA,170625.000,05102.1378,N,01344.1557,E,2,22,0.65,111.0,M,44.5,M,,*4E;0;0.0035126971360887947;81.0;0.0;3.150000016452054
2023-01-24 18:06:26.286;$GNGGA,170626.000,5102.13783,N,01344.15564,E,1,22,0.65,111.0,M,44.5,M,,*78;$GNGGA,170626.000,05102.1378,N,01344.1556,E,2,22,0.65,111.0,M,44.5,M,,*4C;0;0.0035126971360887947;81.0;0.0;3.150000016452054
2023-01-24 18:06:27.220;$GNGGA,170627.000,5102.13782,N,01344.15561,E,1,22,0.65,111.1,M,44.5,M,,*7C;$GNGGA,170627.000,05102.1378,N,01344.1556,E,2,22,0.65,111.1,M,44.5,M,,*4C;0;0.0035126971360887947;81.0;0.0;3.150000016452054
2023-01-24 18:06:28.158;$GNGGA,170628.000,5102.13782,N,01344.15559,E,1,21,0.76,111.1,M,44.5,M,,*79;$GNGGA,170628.000,05102.1378,N,01344.1556,E,2,21,0.76,111.1,M,44.5,M,,*42;0;0.0035383372611697346;81.0;0.0;3.150000016452054
2023-01-24 18:06:29.305;$GNGGA,170629.000,5102.13781,N,01344.15556,E,1,21,0.76,111.1,M,44.5,M,,*74;$GNGGA,170629.000,05102.1378,N,01344.1556,E,2,21,0.76,111.1,M,44.5,M,,*43;0;0.0035126971360887947;81.0;0.0;3.150000016452054
2023-01-24 18:06:31.152;$GNGGA,170631.000,5102.13780,N,01344.15554,E,1,22,0.75,111.2,M,44.5,M,,*7D;$GNGGA,170631.000,05102.1378,N,01344.1555,E,2,22,0.75,111.2,M,44.5,M,,*4A;0;0.0035126971360887947;81.0;0.0;3.150000016452054
2023-01-24 18:06:32.312;$GNGGA,170632.000,5102.13779,N,01344.15553,E,1,22,0.75,111.2,M,44.5,M,,*7F;$GNGGA,170632.000,05102.1378,N,01344.1555,E,2,22,0.75,111.2,M,44.5,M,,*49;0;0.0035126971360887947;81.0;0.0;3.150000016452054
2023-01-24 18:06:34.158;$GNGGA,170634.000,5102.13778,N,01344.15551,E,1,22,0.75,111.2,M,44.5,M,,*7A;$GNGGA,170634.000,05102.1378,N,01344.1555,E,2,22,0.75,111.2,M,44.5,M,,*4F;0;0.0035126971360887947;81.0;0.0;3.150000016452054
2023-01-24 18:06:35.295;$GNGGA,170635.000,5102.13778,N,01344.15550,E,1,21,0.78,111.2,M,44.5,M,,*74;$GNGGA,170635.000,05102.1378,N,01344.1555,E,2,21,0.78,111.2,M,44.5,M,,*40;0;0.0035126971360887947;81.0;0.0;3.150000016452054
2023-01-24 18:06:36.184;$GNGGA,170636.000,5102.13778,N,01344.15549,E,1,21,0.78,111.2,M,44.5,M,,*7F;$GNGGA,170636.000,05102.1378,N,01344.1555,E,2,21,0.78,111.2,M,44.5,M,,*43;0;0.0035126971360887947;81.0;0.0;3.1500000166931064
2023-01-24 18:06:37.167;$GNGGA,170637.000,5102.13778,N,01344.15549,E,1,21,0.78,111.3,M,44.5,M,,*7F;$GNGGA,170637.000,05102.1378,N,01344.1555,E,2,21,0.78,111.3,M,44.5,M,,*43;0;0.0035126971360887947;81.0;0.0;3.150000016452054
2023-01-24 18:06:38.309;$GNGGA,170638.000,5102.13778,N,01344.15548,E,1,21,0.78,111.2,M,44.5,M,,*70;$GNGGA,170638.000,05102.1378,N,01344.1555,E,2,21,0.78,111.2,M,44.5,M,,*4D;0;0.0035126971360887947;81.0;0.0;3.150000016452054
2023-01-24 18:06:39.213;$GNGGA,170639.000,5102.13778,N,01344.15548,E,1,21,0.78,111.3,M,44.5,M,,*70;$GNGGA,170639.000,05102.1378,N,01344.1555,E,2,21,0.78,111.3,M,44.5,M,,*4D;0;0.0035126971360887947;81.0;0.0;3.1500000166931064
2023-01-24 18:06:41.154;$GNGGA,170641.000,5102.13777,N,01344.15547,E,1,21,0.78,111.3,M,44.5,M,,*7F;$GNGGA,170641.000,05102.1378,N,01344.1555,E,2,21,0.78,111.3,M,44.5,M,,*42;0;0.0035126971360887947;81.0;0.0;3.150000016452054
2023-01-24 18:06:44.164;$GNGGA,170644.000,5102.13776,N,01344.15546,E,1,22,0.65,111.3,M,44.5,M,,*75;$GNGGA,170644.000,05102.1378,N,01344.1555,E,2,22,0.65,111.3,M,44.5,M,,*48;0;0.0035126971360887947;81.0;0.0;3.150000016452054
2023-01-24 18:06:46.229;$GNGGA,170646.000,5102.13775,N,01344.15545,E,1,22,0.65,111.3,M,44.5,M,,*77;$GNGGA,170646.000,05102.1377,N,01344.1555,E,2,22,0.65,111.3,M,44.5,M,,*45;0;0.0035126971360887947;81.0;0.0;3.150000016452054
2023-01-24 18:06:47.242;$GNGGA,170647.000,5102.13775,N,01344.15544,E,1,23,0.64,111.3,M,44.5,M,,*77;$GNGGA,170647.000,05102.1377,N,01344.1554,E,2,23,0.64,111.3,M,44.5,M,,*45;0;0.0035126971360887947;81.0;0.0;3.150000016452054
2023-01-24 18:06:48.178;$GNGGA,170648.000,5102.13775,N,01344.15544,E,1,23,0.64,111.3,M,44.5,M,,*78;$GNGGA,170648.000,05102.1377,N,01344.1554,E,2,23,0.64,111.3,M,44.5,M,,*4A;0;0.0035126971360887947;81.0;0.0;3.1500000166931064
2023-01-24 18:06:49.227;$GNGGA,170649.000,5102.13776,N,01344.15543,E,1,23,0.64,111.3,M,44.5,M,,*7D;$GNGGA,170649.000,05102.1378,N,01344.1554,E,2,23,0.64,111.3,M,44.5,M,,*44;0;0.0035126971360887947;81.0;0.0;3.150000016452054
2023-01-24 18:06:50.147;$GNGGA,170650.000,5102.13776,N,01344.15543,E,1,22,0.65,111.2,M,44.5,M,,*74;$GNGGA,170650.000,05102.1378,N,01344.1554,E,2,22,0.65,111.2,M,44.5,M,,*4D;0;0.0035126971360887947;81.0;0.0;3.150000016452054
2023-01-24 18:06:51.167;$GNGGA,170651.000,5102.13775,N,01344.15543,E,1,22,0.65,111.2,M,44.5,M,,*76;$GNGGA,170651.000,05102.1377,N,01344.1554,E,2,22,0.65,111.2,M,44.5,M,,*43;0;0.0035383372611697346;81.0;0.0;3.1500000166931064
2023-01-24 18:06:52.192;$GNGGA,170652.000,5102.13774,N,01344.15542,E,1,22,0.65,111.2,M,44.5,M,,*75;$GNGGA,170652.000,05102.1377,N,01344.1554,E,2,22,0.65,111.2,M,44.5,M,,*40;0;0.0035126971360887947;81.0;0.0;3.150000016452054
2023-01-24 18:06:53.248;$GNGGA,170653.000,5102.13774,N,01344.15541,E,1,22,0.65,111.2,M,44.5,M,,*77;$GNGGA,170653.000,05102.1377,N,01344.1554,E,2,22,0.65,111.2,M,44.5,M,,*41;0;0.0035126971360887947;81.0;0.0;3.150000016452054
2023-01-24 18:06:55.183;$GNGGA,170655.000,5102.13773,N,01344.15538,E,1,23,0.61,111.1,M,44.5,M,,*7E;$GNGGA,170655.000,05102.1377,N,01344.1554,E,2,23,0.61,111.1,M,44.5,M,,*41;0;0.0035126971360887947;81.0;0.0;3.150000016452054
2023-01-24 18:06:56.333;$GNGGA,170656.000,5102.13772,N,01344.15536,E,1,23,0.61,111.1,M,44.5,M,,*72;$GNGGA,170656.000,05102.1377,N,01344.1554,E,2,23,0.61,111.1,M,44.5,M,,*42;0;0.0035383372611697346;81.0;0.0;3.150000016452054
2023-01-24 18:06:57.237;$GNGGA,170657.000,5102.13772,N,01344.15534,E,1,22,0.62,111.1,M,44.5,M,,*73;$GNGGA,170657.000,05102.1377,N,01344.1553,E,2,22,0.62,111.1,M,44.5,M,,*46;0;0.0035126971360887947;81.0;0.0;3.150000016452054
2023-01-24 18:06:58.177;$GNGGA,170658.000,5102.13771,N,01344.15532,E,1,24,0.59,111.1,M,44.5,M,,*77;$GNGGA,170658.000,05102.1377,N,01344.1553,E,2,24,0.59,111.1,M,44.5,M,,*47;0;0.0035126971360887947;81.0;0.0;3.1500000166931064
2023-01-24 18:06:59.303;$GNGGA,170659.000,5102.13771,N,01344.15531,E,1,23,0.60,111.0,M,44.5,M,,*79;$GNGGA,170659.000,05102.1377,N,01344.1553,E,2,23,0.60,111.0,M,44.5,M,,*4A;0;0.0035126971360887947;81.0;0.0;3.1500000166931064
2023-01-24 18:07:01.169;$GNGGA,170701.000,5102.13770,N,01344.15528,E,1,21,0.70,111.0,M,44.5,M,,*7F;$GNGGA,170701.000,05102.1377,N,01344.1553,E,2,21,0.70,111.0,M,44.5,M,,*45;0;0.0035126971360887947;81.0;0.0;3.1500000166931064
2023-01-24 18:07:02.307;$GNGGA,170702.000,5102.13769,N,01344.15526,E,1,21,0.70,111.0,M,44.5,M,,*7A;$GNGGA,170702.000,05102.1377,N,01344.1553,E,2,21,0.70,111.0,M,44.5,M,,*46;0;0.0035126971360887947;81.0;0.0;3.150000016452054
2023-01-24 18:07:04.223;$GNGGA,170704.000,5102.13769,N,01344.15525,E,1,21,0.70,110.9,M,44.5,M,,*77;$GNGGA,170704.000,05102.1377,N,01344.1553,E,2,21,0.70,110.9,M,44.5,M,,*48;0;0.0035126971360887947;81.0;0.0;3.150000016452054
2023-01-24 18:07:05.278;$GNGGA,170705.000,5102.13768,N,01344.15523,E,1,21,0.70,110.9,M,44.5,M,,*71;$GNGGA,170705.000,05102.1377,N,01344.1552,E,2,21,0.70,110.9,M,44.5,M,,*48;0;0.0035126971360887947;81.0;0.0;3.1500000166931064
2023-01-24 18:07:06.197;$GNGGA,170706.000,5102.13767,N,01344.15522,E,1,21,0.70,110.9,M,44.5,M,,*7C;$GNGGA,170706.000,05102.1377,N,01344.1552,E,2,21,0.70,110.9,M,44.5,M,,*4B;0;0.0035126971360887947;81.0;0.0;3.1500000166931064
2023-01-24 18:07:07.193;$GNGGA,170707.000,5102.13767,N,01344.15521,E,1,21,0.70,110.9,M,44.5,M,,*7E;$GNGGA,170707.000,05102.1377,N,01344.1552,E,2,21,0.70,110.9,M,44.5,M,,*4A;0;0.0035126971360887947;81.0;0.0;3.150000016452054
2023-01-24 18:07:08.307;$GNGGA,170708.000,5102.13767,N,01344.15521,E,1,21,0.70,110.9,M,44.5,M,,*71;$GNGGA,170708.000,05102.1377,N,01344.1552,E,2,21,0.70,110.9,M,44.5,M,,*45;0;0.0035126971360887947;81.0;0.0;3.150000016452054
2023-01-24 18:07:09.208;$GNGGA,170709.000,5102.13762,N,01344.15539,E,1,21,0.70,111.0,M,44.5,M,,*74;$GNGGA,170709.000,05102.1376,N,01344.1554,E,2,21,0.70,111.0,M,44.5,M,,*4B;0;0.0035126971360887947;81.0;0.0;3.150000016452054
2023-01-24 18:07:10.230;$GNGGA,170710.000,5102.13750,N,01344.15552,E,1,21,0.70,111.3,M,44.5,M,,*73;$GNGGA,170710.000,05102.1375,N,01344.1555,E,2,21,0.70,111.3,M,44.5,M,,*42;0;0.0035126971360887947;81.0;0.0;3.150000016452054
2023-01-24 18:07:11.228;$GNGGA,170711.000,5102.13750,N,01344.15552,E,1,21,0.70,111.3,M,44.5,M,,*72;$GNGGA,170711.000,05102.1375,N,01344.1555,E,2,21,0.70,111.3,M,44.5,M,,*43;0;0.0035126971360887947;81.0;0.0;3.150000016452054
2023-01-24 18:07:13.147;$GNGGA,170713.000,5102.13751,N,01344.15569,E,1,21,0.70,111.5,M,44.5,M,,*7F;$GNGGA,170713.000,05102.1375,N,01344.1557,E,2,21,0.70,111.5,M,44.5,M,,*45;0;0.0035383372611697346;81.0;0.0;3.1500000166931064
2023-01-24 18:07:14.312;$GNGGA,170714.000,5102.13750,N,01344.15578,E,1,22,0.62,111.6,M,44.5,M,,*7A;$GNGGA,170714.000,05102.1375,N,01344.1558,E,2,22,0.62,111.6,M,44.5,M,,*4E;0;0.0035126971360887947;81.0;0.0;3.150000016452054
2023-01-24 18:07:16.157;$GNGGA,170716.000,5102.13736,N,01344.15623,E,1,21,0.70,111.9,M,44.5,M,,*7A;$GNGGA,170716.000,05102.1374,N,01344.1562,E,2,21,0.70,111.9,M,44.5,M,,*4B;0;0.0035126971360887947;81.0;0.0;3.150000016452054
2023-01-24 18:07:17.318;$GNGGA,170717.000,5102.13736,N,01344.15621,E,1,22,0.69,112.0,M,44.5,M,,*78;$GNGGA,170717.000,05102.1374,N,01344.1562,E,2,22,0.69,112.0,M,44.5,M,,*4B;0;0.0035126971360887947;81.0;0.0;3.150000016452054
2023-01-24 18:07:19.147;$GNGGA,170719.000,5102.13737,N,01344.15600,E,1,21,0.70,112.1,M,44.5,M,,*7E;$GNGGA,170719.000,05102.1374,N,01344.1560,E,2,21,0.70,112.1,M,44.5,M,,*4D;0;0.0035126971360887947;81.0;0.0;3.150000016452054
2023-01-24 18:07:20.279;$GNGGA,170720.000,5102.13736,N,01344.15591,E,1,21,0.70,112.1,M,44.5,M,,*7E;$GNGGA,170720.000,05102.1374,N,01344.1559,E,2,21,0.70,112.1,M,44.5,M,,*4D;0;0.0035126971360887947;81.0;0.0;3.150000016452054
2023-01-24 18:07:22.157;$GNGGA,170722.000,5102.13735,N,01344.15578,E,1,21,0.70,112.2,M,44.5,M,,*7B;$GNGGA,170722.000,05102.1373,N,01344.1558,E,2,21,0.70,112.2,M,44.5,M,,*4A;0;0.0035126971360887947;81.0;0.0;3.150000016452054
2023-01-24 18:07:23.328;$GNGGA,170723.000,5102.13736,N,01344.15572,E,1,20,0.71,112.2,M,44.5,M,,*73;$GNGGA,170723.000,05102.1374,N,01344.1557,E,2,20,0.71,112.2,M,44.5,M,,*43;0;0.0035126971360887947;81.0;0.0;3.150000016452054
2023-01-24 18:07:25.172;$GNGGA,170725.000,5102.13736,N,01344.15562,E,1,18,0.74,112.3,M,44.5,M,,*7B;$GNGGA,170725.000,05102.1374,N,01344.1556,E,2,18,0.74,112.3,M,44.5,M,,*4B;0;0.0035126971360887947;81.0;0.0;3.150000016452054
2023-01-24 18:07:26.328;$GNGGA,170726.000,5102.13736,N,01344.15556,E,1,19,0.73,112.4,M,44.5,M,,*7E;$GNGGA,170726.000,05102.1374,N,01344.1556,E,2,19,0.73,112.4,M,44.5,M,,*49;0;0.0035126971360887947;81.0;0.0;3.150000016452054
2023-01-24 18:07:28.175;$GNGGA,170728.000,5102.13739,N,01344.15547,E,1,19,0.72,112.5,M,44.5,M,,*7F;$GNGGA,170728.000,05102.1374,N,01344.1555,E,2,19,0.72,112.5,M,44.5,M,,*44;0;0.0035126971360887947;81.0;0.0;3.150000016452054
2023-01-24 18:07:29.417;$GNGGA,170729.000,5102.13744,N,01344.15543,E,1,16,0.82,112.5,M,44.5,M,,*70;$GNGGA,170729.000,05102.1374,N,01344.1554,E,2,16,0.82,112.5,M,44.5,M,,*44;0;0.0035383372611697346;81.0;0.0;3.150000016452054
2023-01-24 18:07:31.166;$GNGGA,170731.000,5102.13752,N,01344.15533,E,1,19,0.72,112.5,M,44.5,M,,*79;$GNGGA,170731.000,05102.1375,N,01344.1553,E,2,19,0.72,112.5,M,44.5,M,,*4B;0;0.0035126971360887947;81.0;0.0;3.1500000166931064
2023-01-24 18:07:32.312;$GNGGA,170732.000,5102.13754,N,01344.15523,E,1,19,0.72,112.6,M,44.5,M,,*7E;$GNGGA,170732.000,05102.1375,N,01344.1552,E,2,19,0.72,112.6,M,44.5,M,,*4A;0;0.0035126971360887947;81.0;0.0;3.150000016452054
2023-01-24 18:07:34.155;$GNGGA,170734.000,5102.13756,N,01344.15514,E,1,22,0.62,112.6,M,44.5,M,,*77;$GNGGA,170734.000,05102.1376,N,01344.1551,E,2,22,0.62,112.6,M,44.5,M,,*45;0;0.0035126971360887947;81.0;0.0;3.150000016452054
2023-01-24 18:07:35.317;$GNGGA,170735.000,5102.13760,N,01344.15514,E,1,21,0.64,112.6,M,44.5,M,,*76;$GNGGA,170735.000,05102.1376,N,01344.1551,E,2,21,0.64,112.6,M,44.5,M,,*41;0;0.0035126971360887947;81.0;0.0;3.150000016452054
2023-01-24 18:07:36.160;$GNGGA,170736.000,5102.13762,N,01344.15510,E,1,19,0.73,112.7,M,44.5,M,,*7F;$GNGGA,170736.000,05102.1376,N,01344.1551,E,2,19,0.73,112.7,M,44.5,M,,*4E;0;0.0035126971360887947;81.0;0.0;3.150000016452054
2023-01-24 18:07:37.155;$GNGGA,170737.000,5102.13761,N,01344.15504,E,1,19,0.66,112.7,M,44.5,M,,*7C;$GNGGA,170737.000,05102.1376,N,01344.1550,E,2,19,0.66,112.7,M,44.5,M,,*4A;0;0.0035126971360887947;81.0;0.0;3.150000016452054
2023-01-24 18:07:38.301;$GNGGA,170738.000,5102.13759,N,01344.15503,E,1,20,0.65,112.7,M,44.5,M,,*76;$GNGGA,170738.000,05102.1376,N,01344.1550,E,2,20,0.65,112.7,M,44.5,M,,*4C;0;0.0035126971360887947;81.0;0.0;3.150000016452054
2023-01-24 18:07:39.151;$GNGGA,170739.000,5102.13759,N,01344.15501,E,1,17,0.75,112.7,M,44.5,M,,*70;$GNGGA,170739.000,05102.1376,N,01344.1550,E,2,17,0.75,112.7,M,44.5,M,,*48;0;0.0035126971360887947;81.0;0.0;3.150000016452054
2023-01-24 18:07:40.168;$GNGGA,170740.000,5102.13760,N,01344.15500,E,1,21,0.64,112.8,M,44.5,M,,*7F;$GNGGA,170740.000,05102.1376,N,01344.1550,E,2,21,0.64,112.8,M,44.5,M,,*4C;0;0.0035126971360887947;81.0;0.0;3.150000016452054
2023-01-24 18:07:41.284;$GNGGA,170741.000,5102.13760,N,01344.15499,E,1,20,0.65,112.8,M,44.5,M,,*7F;$GNGGA,170741.000,05102.1376,N,01344.1550,E,2,20,0.65,112.8,M,44.5,M,,*4D;0;0.0035126971360887947;81.0;0.0;3.150000016452054
2023-01-24 18:07:42.194;$GNGGA,170742.000,5102.13761,N,01344.15501,E,1,19,0.74,112.8,M,44.5,M,,*77;$GNGGA,170742.000,05102.1376,N,01344.1550,E,2,19,0.74,112.8,M,44.5,M,,*44;0;0.0035126971360887947;81.0;0.0;3.150000016452054
2023-01-24 18:07:43.167;$GNGGA,170743.000,5102.13762,N,01344.15501,E,1,21,0.64,112.8,M,44.5,M,,*7F;$GNGGA,170743.000,05102.1376,N,01344.1550,E,2,21,0.64,112.8,M,44.5,M,,*4F;0;0.0035126971360887947;81.0;0.0;3.150000016452054
2023-01-24 18:07:44.309;$GNGGA,170744.000,5102.13763,N,01344.15503,E,1,18,0.76,112.8,M,44.5,M,,*72;$GNGGA,170744.000,05102.1376,N,01344.1550,E,2,18,0.76,112.8,M,44.5,M,,*41;0;0.0035126971360887947;81.0;0.0;3.150000016452054
2023-01-24 18:07:47.201;$GNGGA,170747.000,5102.13768,N,01344.15508,E,1,21,0.64,112.7,M,44.5,M,,*77;$GNGGA,170747.000,05102.1377,N,01344.1551,E,2,21,0.64,112.7,M,44.5,M,,*44;0;0.0035126971360887947;81.0;0.0;3.1500000166931064
2023-01-24 18:07:48.191;$GNGGA,170748.000,5102.13770,N,01344.15507,E,1,21,0.64,112.7,M,44.5,M,,*7E;$GNGGA,170748.000,05102.1377,N,01344.1551,E,2,21,0.64,112.7,M,44.5,M,,*4B;0;0.0035383372611697346;81.0;0.0;3.150000016452054
2023-01-24 18:07:50.247;$GNGGA,170750.000,5102.13768,N,01344.15504,E,1,20,0.72,112.6,M,44.5,M,,*7A;$GNGGA,170750.000,05102.1377,N,01344.1550,E,2,20,0.72,112.6,M,44.5,M,,*44;0;0.0035126971360887947;81.0;0.0;3.150000016452054
2023-01-24 18:07:51.222;$GNGGA,170751.000,5102.13766,N,01344.15502,E,1,21,0.71,112.6,M,44.5,M,,*71;$GNGGA,170751.000,05102.1377,N,01344.1550,E,2,21,0.71,112.6,M,44.5,M,,*47;0;0.0035126971360887947;81.0;0.0;3.1500000166931064
2023-01-24 18:07:53.231;$GNGGA,170753.000,5102.13764,N,01344.15495,E,1,22,0.63,112.6,M,44.5,M,,*7E;$GNGGA,170753.000,05102.1376,N,01344.1550,E,2,22,0.63,112.6,M,44.5,M,,*44;0;0.0035126971360887947;81.0;0.0;3.150000016452054
2023-01-24 18:08:02.161;$GNGGA,170802.000,5102.13754,N,01344.15477,E,1,21,0.64,112.7,M,44.5,M,,*7F;$GNGGA,170802.000,05102.1375,N,01344.1548,E,2,21,0.64,112.7,M,44.5,M,,*40;0;0.0035126971360887947;81.0;0.0;3.150000016452054
2023-01-24 18:08:04.244;$GNGGA,170804.000,5102.13753,N,01344.15472,E,1,23,0.59,112.8,M,44.5,M,,*78;$GNGGA,170804.000,05102.1375,N,01344.1547,E,2,23,0.59,112.8,M,44.5,M,,*4A;0;0.0035126971360887947;81.0;0.0;3.1500000166931064
2023-01-24 18:08:05.194;$GNGGA,170805.000,5102.13752,N,01344.15472,E,1,22,0.60,112.8,M,44.5,M,,*73;$GNGGA,170805.000,05102.1375,N,01344.1547,E,2,22,0.60,112.8,M,44.5,M,,*40;0;0.0035383372611697346;81.0;0.0;3.1500000166931064
2023-01-24 18:08:07.227;$GNGGA,170807.000,5102.13754,N,01344.15469,E,1,23,0.59,112.7,M,44.5,M,,*79;$GNGGA,170807.000,05102.1375,N,01344.1547,E,2,23,0.59,112.7,M,44.5,M,,*46;0;0.0035126971360887947;81.0;0.0;3.150000016452054
2023-01-24 18:08:08.295;$GNGGA,170808.000,5102.13754,N,01344.15468,E,1,22,0.60,112.7,M,44.5,M,,*7C;$GNGGA,170808.000,05102.1375,N,01344.1547,E,2,22,0.60,112.7,M,44.5,M,,*42;0;0.0035383372611697346;81.0;0.0;3.150000016452054
2023-01-24 18:08:10.194;$GNGGA,170810.000,5102.13753,N,01344.15467,E,1,22,0.60,112.7,M,44.5,M,,*7D;$GNGGA,170810.000,05102.1375,N,01344.1547,E,2,22,0.60,112.7,M,44.5,M,,*4B;0;0.0035126971360887947;81.0;0.0;3.150000016452054
2023-01-24 18:08:11.331;$GNGGA,170811.000,5102.13752,N,01344.15468,E,1,22,0.60,112.7,M,44.5,M,,*72;$GNGGA,170811.000,05102.1375,N,01344.1547,E,2,22,0.60,112.7,M,44.5,M,,*4A;0;0.0035126971360887947;81.0;0.0;3.150000016452054
2023-01-24 18:08:13.197;$GNGGA,170813.000,5102.13749,N,01344.15469,E,1,20,0.64,112.7,M,44.5,M,,*7D;$GNGGA,170813.000,05102.1375,N,01344.1547,E,2,20,0.64,112.7,M,44.5,M,,*4E;0;0.0035383372611697346;81.0;0.0;3.150000016452054
2023-01-24 18:08:14.251;$GNGGA,170814.000,5102.13747,N,01344.15469,E,1,19,0.65,112.6,M,44.5,M,,*7E;$GNGGA,170814.000,05102.1375,N,01344.1547,E,2,19,0.65,112.6,M,44.5,M,,*43;0;0.0035126971360887947;81.0;0.0;3.150000016452054
2023-01-24 18:08:15.190;$GNGGA,170815.000,5102.13746,N,01344.15469,E,1,19,0.65,112.6,M,44.5,M,,*7E;$GNGGA,170815.000,05102.1375,N,01344.1547,E,2,19,0.65,112.6,M,44.5,M,,*42;0;0.0035126971360887947;81.0;0.0;3.150000016452054
2023-01-24 18:08:16.238;$GNGGA,170816.000,5102.13745,N,01344.15469,E,1,18,0.66,112.6,M,44.5,M,,*7C;$GNGGA,170816.000,05102.1374,N,01344.1547,E,2,18,0.66,112.6,M,44.5,M,,*42;0;0.0035126971360887947;81.0;0.0;3.150000016452054
2023-01-24 18:08:17.147;$GNGGA,170817.000,5102.13744,N,01344.15470,E,1,18,0.66,112.6,M,44.5,M,,*74;$GNGGA,170817.000,05102.1374,N,01344.1547,E,2,18,0.66,112.6,M,44.5,M,,*43;0;0.0035126971360887947;81.0;0.0;3.150000016452054
2023-01-24 18:08:19.214;$GNGGA,170819.000,5102.13742,N,01344.15469,E,1,18,0.66,112.5,M,44.5,M,,*77;$GNGGA,170819.000,05102.1374,N,01344.1547,E,2,18,0.66,112.5,M,44.5,M,,*4E;0;0.0035126971360887947;81.0;0.0;3.150000016452054
2023-01-24 18:08:20.167;$GNGGA,170820.000,5102.13742,N,01344.15468,E,1,18,0.66,112.5,M,44.5,M,,*7C;$GNGGA,170820.000,05102.1374,N,01344.1547,E,2,18,0.66,112.5,M,44.5,M,,*44;0;0.0035126971360887947;81.0;0.0;3.150000016452054
2023-01-24 18:08:22.185;$GNGGA,170822.000,5102.13738,N,01344.15470,E,1,18,0.66,112.5,M,44.5,M,,*7A;$GNGGA,170822.000,05102.1374,N,01344.1547,E,2,18,0.66,112.5,M,44.5,M,,*46;0;0.0035126971360887947;81.0;0.0;3.150000016452054
2023-01-24 18:08:23.300;$GNGGA,170823.000,5102.13737,N,01344.15472,E,1,16,0.77,112.5,M,44.5,M,,*78;$GNGGA,170823.000,05102.1374,N,01344.1547,E,2,16,0.77,112.5,M,44.5,M,,*49;0;0.0035126971360887947;81.0;0.0;3.150000016452054
2023-01-24 18:08:24.150;$GNGGA,170824.000,5102.13735,N,01344.15474,E,1,18,0.66,112.5,M,44.5,M,,*75;$GNGGA,170824.000,05102.1373,N,01344.1547,E,2,18,0.66,112.5,M,44.5,M,,*47;0;0.0035126971360887947;81.0;0.0;3.150000016452054
2023-01-24 18:08:25.154;$GNGGA,170825.000,5102.13732,N,01344.15476,E,1,19,0.65,112.6,M,44.5,M,,*70;$GNGGA,170825.000,05102.1373,N,01344.1548,E,2,19,0.65,112.6,M,44.5,M,,*48;0;0.0035126971360887947;81.0;0.0;3.150000016452054
2023-01-24 18:08:26.339;$GNGGA,170826.000,5102.13730,N,01344.15477,E,1,18,0.66,112.6,M,44.5,M,,*72;$GNGGA,170826.000,05102.1373,N,01344.1548,E,2,18,0.66,112.6,M,44.5,M,,*49;0;0.0035126971360887947;81.0;0.0;3.1500000166931064
2023-01-24 18:08:28.166;$GNGGA,170828.000,5102.13728,N,01344.15481,E,1,20,0.63,112.7,M,44.5,M,,*73;$GNGGA,170828.000,05102.1373,N,01344.1548,E,2,20,0.63,112.7,M,44.5,M,,*48;0;0.0035126971360887947;81.0;0.0;3.150000016452054
2023-01-24 18:08:29.318;$GNGGA,170829.000,5102.13727,N,01344.15484,E,1,19,0.65,112.7,M,44.5,M,,*74;$GNGGA,170829.000,05102.1373,N,01344.1548,E,2,19,0.65,112.7,M,44.5,M,,*45;0;0.0035126971360887947;81.0;0.0;3.150000016452054
2023-01-24 18:08:31.156;$GNGGA,170831.000,5102.13725,N,01344.15490,E,1,19,0.65,112.7,M,44.5,M,,*7A;$GNGGA,170831.000,05102.1372,N,01344.1549,E,2,19,0.65,112.7,M,44.5,M,,*4C;0;0.0035126971360887947;81.0;0.0;3.150000016452054
2023-01-24 18:08:32.325;$GNGGA,170832.000,5102.13725,N,01344.15493,E,1,19,0.65,112.7,M,44.5,M,,*7A;$GNGGA,170832.000,05102.1372,N,01344.1549,E,2,19,0.65,112.7,M,44.5,M,,*4F;0;0.0035126971360887947;81.0;0.0;3.150000016452054
2023-01-24 18:08:34.174;$GNGGA,170834.000,5102.13724,N,01344.15492,E,1,19,0.65,112.7,M,44.5,M,,*7C;$GNGGA,170834.000,05102.1372,N,01344.1549,E,2,19,0.65,112.7,M,44.5,M,,*49;0;0.0035126971360887947;81.0;0.0;3.150000016452054
2023-01-24 18:08:35.317;$GNGGA,170835.000,5102.13724,N,01344.15491,E,1,19,0.65,112.7,M,44.5,M,,*7E;$GNGGA,170835.000,05102.1372,N,01344.1549,E,2,19,0.65,112.7,M,44.5,M,,*48;0;0.0035126971360887947;81.0;0.0;3.150000016452054
2023-01-24 18:08:36.161;$GNGGA,170836.000,5102.13725,N,01344.15487,E,1,21,0.61,112.7,M,44.5,M,,*74;$GNGGA,170836.000,05102.1372,N,01344.1549,E,2,21,0.61,112.7,M,44.5,M,,*44;0;0.0035383372611697346;81.0;0.0;3.1500000166931064
2023-01-24 18:08:37.365;$GNGGA,170837.000,5102.13725,N,01344.15484,E,1,21,0.61,112.7,M,44.5,M,,*76;$GNGGA,170837.000,05102.1372,N,01344.1548,E,2,21,0.61,112.7,M,44.5,M,,*44;0;0.0035126971360887947;81.0;0.0;3.150000016452054
2023-01-24 18:08:38.267;$GNGGA,170838.000,5102.13725,N,01344.15481,E,1,21,0.61,112.8,M,44.5,M,,*73;$GNGGA,170838.000,05102.1372,N,01344.1548,E,2,21,0.61,112.8,M,44.5,M,,*44;0;0.0035126971360887947;81.0;0.0;3.150000016452054
2023-01-24 18:08:40.214;$GNGGA,170840.000,5102.13726,N,01344.15475,E,1,21,0.61,112.9,M,44.5,M,,*75;$GNGGA,170840.000,05102.1373,N,01344.1548,E,2,21,0.61,112.9,M,44.5,M,,*4B;0;0.0035126971360887947;81.0;0.0;3.150000016452054
2023-01-24 18:08:41.232;$GNGGA,170841.000,5102.13727,N,01344.15473,E,1,22,0.60,112.9,M,44.5,M,,*71;$GNGGA,170841.000,05102.1373,N,01344.1547,E,2,22,0.60,112.9,M,44.5,M,,*47;0;0.0035126971360887947;81.0;0.0;3.150000016452054
2023-01-24 18:08:43.183;$GNGGA,170843.000,5102.13726,N,01344.15467,E,1,22,0.60,113.1,M,44.5,M,,*7E;$GNGGA,170843.000,05102.1373,N,01344.1547,E,2,22,0.60,113.1,M,44.5,M,,*4C;0;0.0035126971360887947;81.0;0.0;3.1500000166931064
2023-01-24 18:08:44.332;$GNGGA,170844.000,5102.13726,N,01344.15465,E,1,22,0.60,113.1,M,44.5,M,,*7B;$GNGGA,170844.000,05102.1373,N,01344.1547,E,2,22,0.60,113.1,M,44.5,M,,*4B;0;0.0035126971360887947;81.0;0.0;3.150000016452054
2023-01-24 18:08:46.179;$GNGGA,170846.000,5102.13725,N,01344.15460,E,1,21,0.63,113.1,M,44.5,M,,*7F;$GNGGA,170846.000,05102.1372,N,01344.1546,E,2,21,0.63,113.1,M,44.5,M,,*49;0;0.0035383372611697346;81.0;0.0;3.1500000166931064
2023-01-24 18:08:47.313;$GNGGA,170847.000,5102.13725,N,01344.15457,E,1,22,0.60,113.2,M,44.5,M,,*79;$GNGGA,170847.000,05102.1372,N,01344.1546,E,2,22,0.60,113.2,M,44.5,M,,*4B;0;0.0035126971360887947;81.0;0.0;3.150000016452054
2023-01-24 18:08:49.170;$GNGGA,170849.000,5102.13725,N,01344.15448,E,1,21,0.63,113.2,M,44.5,M,,*79;$GNGGA,170849.000,05102.1372,N,01344.1545,E,2,21,0.63,113.2,M,44.5,M,,*46;0;0.0035383372611697346;81.0;0.0;3.1500000166931064
2023-01-24 18:08:50.292;$GNGGA,170850.000,5102.13725,N,01344.15444,E,1,21,0.63,113.2,M,44.5,M,,*7D;$GNGGA,170850.000,05102.1372,N,01344.1544,E,2,21,0.63,113.2,M,44.5,M,,*4F;0;0.0035383372611697346;81.0;0.0;3.150000016452054
2023-01-24 18:08:52.167;$GNGGA,170852.000,5102.13723,N,01344.15436,E,1,21,0.63,113.3,M,44.5,M,,*7D;$GNGGA,170852.000,05102.1372,N,01344.1544,E,2,21,0.63,113.3,M,44.5,M,,*4C;0;0.0035126971360887947;81.0;0.0;3.150000016452054
2023-01-24 18:08:53.263;$GNGGA,170853.000,5102.13723,N,01344.15435,E,1,21,0.63,113.3,M,44.5,M,,*7F;$GNGGA,170853.000,05102.1372,N,01344.1544,E,2,21,0.63,113.3,M,44.5,M,,*4D;0;0.0035126971360887947;81.0;0.0;3.1500000166931064
2023-01-24 18:08:55.157;$GNGGA,170855.000,5102.13722,N,01344.15427,E,1,21,0.63,113.4,M,44.5,M,,*7C;$GNGGA,170855.000,05102.1372,N,01344.1543,E,2,21,0.63,113.4,M,44.5,M,,*4B;0;0.0035126971360887947;81.0;0.0;3.150000016452054
2023-01-24 18:08:56.242;$GNGGA,170856.000,5102.13721,N,01344.15424,E,1,22,0.62,113.4,M,44.5,M,,*7D;$GNGGA,170856.000,05102.1372,N,01344.1542,E,2,22,0.62,113.4,M,44.5,M,,*4B;0;0.0035126971360887947;81.0;0.0;3.150000016452054
2023-01-24 18:08:58.207;$GNGGA,170858.000,5102.13720,N,01344.15418,E,1,22,0.62,113.5,M,44.5,M,,*7C;$GNGGA,170858.000,05102.1372,N,01344.1542,E,2,22,0.62,113.5,M,44.5,M,,*44;0;0.0035383372611697346;81.0;0.0;3.1500000166931064
2023-01-24 18:08:59.217;$GNGGA,170859.000,5102.13720,N,01344.15413,E,1,22,0.62,113.5,M,44.5,M,,*76;$GNGGA,170859.000,05102.1372,N,01344.1541,E,2,22,0.62,113.5,M,44.5,M,,*46;0;0.0035126971360887947;81.0;0.0;3.150000016452054
2023-01-24 18:09:01.225;$GNGGA,170901.000,5102.13721,N,01344.15407,E,1,21,0.64,113.5,M,44.5,M,,*7B;$GNGGA,170901.000,05102.1372,N,01344.1541,E,2,21,0.64,113.5,M,44.5,M,,*4F;0;0.0035126971360887947;81.0;0.0;3.150000016452054
2023-01-24 18:09:02.222;$GNGGA,170902.000,5102.13721,N,01344.15404,E,1,21,0.64,113.5,M,44.5,M,,*7B;$GNGGA,170902.000,05102.1372,N,01344.1540,E,2,21,0.64,113.5,M,44.5,M,,*4D;0;0.0035126971360887947;81.0;0.0;3.150000016452054
2023-01-24 18:09:04.197;$GNGGA,170904.000,5102.13722,N,01344.15398,E,1,20,0.68,113.5,M,44.5,M,,*71;$GNGGA,170904.000,05102.1372,N,01344.1540,E,2,20,0.68,113.5,M,44.5,M,,*46;0;0.0035126971360887947;81.0;0.0;3.1500000166931064
2023-01-24 18:09:05.191;$GNGGA,170905.000,5102.13721,N,01344.15396,E,1,21,0.66,113.6,M,44.5,M,,*71;$GNGGA,170905.000,05102.1372,N,01344.1540,E,2,21,0.66,113.6,M,44.5,M,,*4B;0;0.0035126971360887947;81.0;0.0;3.150000016452054
2023-01-24 18:09:07.191;$GNGGA,170907.000,5102.13720,N,01344.15390,E,1,21,0.66,113.6,M,44.5,M,,*74;$GNGGA,170907.000,05102.1372,N,01344.1539,E,2,21,0.66,113.6,M,44.5,M,,*47;0;0.0035126971360887947;81.0;0.0;3.150000016452054
2023-01-24 18:09:08.302;$GNGGA,170908.000,5102.13719,N,01344.15387,E,1,21,0.66,113.6,M,44.5,M,,*77;$GNGGA,170908.000,05102.1372,N,01344.1539,E,2,21,0.66,113.6,M,44.5,M,,*48;0;0.0035126971360887947;81.0;0.0;3.150000016452054
2023-01-24 18:09:09.169;$GNGGA,170909.000,5102.13718,N,01344.15384,E,1,20,0.68,113.7,M,44.5,M,,*7A;$GNGGA,170909.000,05102.1372,N,01344.1538,E,2,20,0.68,113.7,M,44.5,M,,*46;0;0.0035126971360887947;81.0;0.0;3.1500000166931064
2023-01-24 18:09:10.153;$GNGGA,170910.000,5102.13718,N,01344.15381,E,1,21,0.64,113.7,M,44.5,M,,*7A;$GNGGA,170910.000,05102.1372,N,01344.1538,E,2,21,0.64,113.7,M,44.5,M,,*43;0;0.0035126971360887947;81.0;0.0;3.150000016452054
2023-01-24 18:09:11.322;$GNGGA,170911.000,5102.13717,N,01344.15377,E,1,22,0.62,113.7,M,44.5,M,,*78;$GNGGA,170911.000,05102.1372,N,01344.1538,E,2,22,0.62,113.7,M,44.5,M,,*47;0;0.0035383372611697346;81.0;0.0;3.150000016452054
2023-01-24 18:09:12.152;$GNGGA,170912.000,5102.13717,N,01344.15374,E,1,22,0.63,113.7,M,44.5,M,,*79;$GNGGA,170912.000,05102.1372,N,01344.1537,E,2,22,0.63,113.7,M,44.5,M,,*4A;0;0.0035126971360887947;81.0;0.0;3.150000016452054
2023-01-24 18:09:13.160;$GNGGA,170913.000,5102.13716,N,01344.15371,E,1,21,0.63,113.7,M,44.5,M,,*7F;$GNGGA,170913.000,05102.1372,N,01344.1537,E,2,21,0.63,113.7,M,44.5,M,,*48;0;0.0035126971360887947;81.0;0.0;3.150000016452054
2023-01-24 18:09:14.304;$GNGGA,170914.000,5102.13715,N,01344.15369,E,1,21,0.63,113.7,M,44.5,M,,*72;$GNGGA,170914.000,05102.1371,N,01344.1537,E,2,21,0.63,113.7,M,44.5,M,,*4C;0;0.0035126971360887947;81.0;0.0;3.150000016452054
2023-01-24 18:09:15.157;$GNGGA,170915.000,5102.13714,N,01344.15366,E,1,21,0.63,113.7,M,44.5,M,,*7D;$GNGGA,170915.000,05102.1371,N,01344.1537,E,2,21,0.63,113.7,M,44.5,M,,*4D;0;0.0035126971360887947;81.0;0.0;3.150000016452054
2023-01-24 18:09:16.175;$GNGGA,170916.000,5102.13715,N,01344.15363,E,1,21,0.63,113.6,M,44.5,M,,*7B;$GNGGA,170916.000,05102.1371,N,01344.1536,E,2,21,0.63,113.6,M,44.5,M,,*4E;0;0.0035126971360887947;81.0;0.0;3.150000016452054
2023-01-24 18:09:17.309;$GNGGA,170917.000,5102.13715,N,01344.15358,E,1,21,0.63,113.6,M,44.5,M,,*72;$GNGGA,170917.000,05102.1371,N,01344.1536,E,2,21,0.63,113.6,M,44.5,M,,*4F;0;0.0035126971360887947;81.0;0.0;3.150000016452054
2023-01-24 18:09:19.152;$GNGGA,170919.000,5102.13716,N,01344.15349,E,1,21,0.63,113.5,M,44.5,M,,*7C;$GNGGA,170919.000,05102.1372,N,01344.1535,E,2,21,0.63,113.5,M,44.5,M,,*42;0;0.0035126971360887947;81.0;0.0;3.150000016452054
2023-01-24 18:09:20.305;$GNGGA,170920.000,5102.13717,N,01344.15345,E,1,22,0.63,113.5,M,44.5,M,,*78;$GNGGA,170920.000,05102.1372,N,01344.1535,E,2,22,0.63,113.5,M,44.5,M,,*4B;0;0.0035126971360887947;81.0;0.0;3.150000016452054
2023-01-24 18:09:22.154;$GNGGA,170922.000,5102.13718,N,01344.15339,E,1,21,0.64,113.4,M,44.5,M,,*7B;$GNGGA,170922.000,05102.1372,N,01344.1534,E,2,21,0.64,113.4,M,44.5,M,,*4D;0;0.0035126971360887947;81.0;0.0;3.1500000166931064
2023-01-24 18:09:23.356;$GNGGA,170923.000,5102.13720,N,01344.15335,E,1,22,0.63,113.4,M,44.5,M,,*79;$GNGGA,170923.000,05102.1372,N,01344.1534,E,2,22,0.63,113.4,M,44.5,M,,*48;0;0.0035126971360887947;81.0;0.0;3.150000016452054
2023-01-24 18:09:24.160;$GNGGA,170924.000,5102.13721,N,01344.15332,E,1,21,0.64,113.4,M,44.5,M,,*7C;$GNGGA,170924.000,05102.1372,N,01344.1533,E,2,21,0.64,113.4,M,44.5,M,,*4C;0;0.0035126971360887947;81.0;0.0;3.150000016452054
2023-01-24 18:09:25.896;$GNGGA,170925.000,5102.13723,N,01344.15327,E,1,19,0.69,113.3,M,44.5,M,,*7A;$GNGGA,170925.000,05102.1372,N,01344.1533,E,2,19,0.69,113.3,M,44.5,M,,*4C;0;0.0035126971360887947;81.0;0.0;3.150000016452054
2023-01-24 18:09:28.131;$GNGGA,170928.000,5102.13727,N,01344.15313,E,1,21,0.64,113.3,M,44.5,M,,*72;$GNGGA,170928.000,05102.1373,N,01344.1531,E,2,21,0.64,113.3,M,44.5,M,,*44;0;0.0035126971360887947;81.0;0.0;3.150000016452054
2023-01-24 18:09:29.230;$GNGGA,170929.000,5102.13727,N,01344.15310,E,1,21,0.64,113.3,M,44.5,M,,*70;$GNGGA,170929.000,05102.1373,N,01344.1531,E,2,21,0.64,113.3,M,44.5,M,,*45;0;0.0035126971360887947;81.0;0.0;3.150000016452054
2023-01-24 18:09:31.262;$GNGGA,170931.000,5102.13728,N,01344.15303,E,1,19,0.69,113.2,M,44.5,M,,*73;$GNGGA,170931.000,05102.1373,N,01344.1530,E,2,19,0.69,113.2,M,44.5,M,,*4A;0;0.0035126971360887947;81.0;0.0;3.1500000166931064
2023-01-24 18:09:32.268;$GNGGA,170932.000,5102.13729,N,01344.15301,E,1,22,0.63,113.2,M,44.5,M,,*71;$GNGGA,170932.000,05102.1373,N,01344.1530,E,2,22,0.63,113.2,M,44.5,M,,*4B;0;0.0035126971360887947;81.0;0.0;3.150000016452054
2023-01-24 18:09:35.199;$GNGGA,170935.000,5102.13731,N,01344.15296,E,1,21,0.64,113.1,M,44.5,M,,*77;$GNGGA,170935.000,05102.1373,N,01344.1530,E,2,21,0.64,113.1,M,44.5,M,,*4B;0;0.0035126971360887947;81.0;0.0;3.150000016452054
2023-01-24 18:09:36.214;$GNGGA,170936.000,5102.13731,N,01344.15295,E,1,21,0.64,113.1,M,44.5,M,,*77;$GNGGA,170936.000,05102.1373,N,01344.1530,E,2,21,0.64,113.1,M,44.5,M,,*48;0;0.0035126971360887947;81.0;0.0;3.150000016452054
2023-01-24 18:09:37.229;$GNGGA,170937.000,5102.13730,N,01344.15294,E,1,22,0.63,113.1,M,44.5,M,,*72;$GNGGA,170937.000,05102.1373,N,01344.1529,E,2,22,0.63,113.1,M,44.5,M,,*45;0;0.0035383372611697346;81.0;0.0;3.150000016452054
2023-01-24 18:09:38.236;$GNGGA,170938.000,5102.13730,N,01344.15293,E,1,23,0.62,113.1,M,44.5,M,,*7A;$GNGGA,170938.000,05102.1373,N,01344.1529,E,2,23,0.62,113.1,M,44.5,M,,*4A;0;0.0035126971360887947;81.0;0.0;3.150000016452054
2023-01-24 18:09:39.167;$GNGGA,170939.000,5102.13730,N,01344.15292,E,1,22,0.63,113.2,M,44.5,M,,*79;$GNGGA,170939.000,05102.1373,N,01344.1529,E,2,22,0.63,113.2,M,44.5,M,,*48;0;0.0035126971360887947;81.0;0.0;3.150000016452054
2023-01-24 18:09:40.191;$GNGGA,170940.000,5102.13731,N,01344.15291,E,1,22,0.63,113.1,M,44.5,M,,*76;$GNGGA,170940.000,05102.1373,N,01344.1529,E,2,22,0.63,113.1,M,44.5,M,,*45;0;0.0035126971360887947;81.0;0.0;3.150000016452054
2023-01-24 18:09:41.306;$GNGGA,170941.000,5102.13731,N,01344.15289,E,1,22,0.63,113.1,M,44.5,M,,*7E;$GNGGA,170941.000,05102.1373,N,01344.1529,E,2,22,0.63,113.1,M,44.5,M,,*44;0;0.0035126971360887947;81.0;0.0;3.1500000166931064
2023-01-24 18:09:43.203;$GNGGA,170943.000,5102.13732,N,01344.15287,E,1,22,0.63,113.1,M,44.5,M,,*71;$GNGGA,170943.000,05102.1373,N,01344.1529,E,2,22,0.63,113.1,M,44.5,M,,*46;0;0.0035126971360887947;81.0;0.0;3.150000016452054
2023-01-24 18:09:44.268;$GNGGA,170944.000,5102.13732,N,01344.15286,E,1,22,0.63,113.1,M,44.5,M,,*77;$GNGGA,170944.000,05102.1373,N,01344.1529,E,2,22,0.63,113.1,M,44.5,M,,*41;0;0.0035126971360887947;81.0;0.0;3.150000016452054
2023-01-24 18:09:45.159;$GNGGA,170945.000,5102.13733,N,01344.15285,E,1,22,0.63,113.1,M,44.5,M,,*74;$GNGGA,170945.000,05102.1373,N,01344.1529,E,2,22,0.63,113.1,M,44.5,M,,*40;0;0.0035383372611697346;81.0;0.0;3.1500000166931064
2023-01-24 18:09:46.151;$GNGGA,170946.000,5102.13733,N,01344.15284,E,1,22,0.63,113.1,M,44.5,M,,*76;$GNGGA,170946.000,05102.1373,N,01344.1528,E,2,22,0.63,113.1,M,44.5,M,,*42;0;0.0035126971360887947;81.0;0.0;3.1500000166931064
2023-01-24 18:09:47.307;$GNGGA,170947.000,5102.13734,N,01344.15283,E,1,22,0.63,113.1,M,44.5,M,,*77;$GNGGA,170947.000,05102.1373,N,01344.1528,E,2,22,0.63,113.1,M,44.5,M,,*43;0;0.0035383372611697346;81.0;0.0;3.150000016452054
2023-01-24 18:09:49.159;$GNGGA,170949.000,5102.13736,N,01344.15279,E,1,21,0.66,113.1,M,44.5,M,,*78;$GNGGA,170949.000,05102.1374,N,01344.1528,E,2,21,0.66,113.1,M,44.5,M,,*4C;0;0.0035383372611697346;81.0;0.0;3.1500000166931064
2023-01-24 18:09:50.308;$GNGGA,170950.000,5102.13738,N,01344.15279,E,1,22,0.63,113.1,M,44.5,M,,*78;$GNGGA,170950.000,05102.1374,N,01344.1528,E,2,22,0.63,113.1,M,44.5,M,,*42;0;0.0035126971360887947;81.0;0.0;3.150000016452054
2023-01-24 18:09:52.149;$GNGGA,170952.000,5102.13739,N,01344.15278,E,1,22,0.63,113.1,M,44.5,M,,*7A;$GNGGA,170952.000,05102.1374,N,01344.1528,E,2,22,0.63,113.1,M,44.5,M,,*40;0;0.0035126971360887947;81.0;0.0;3.150000016452054
2023-01-24 18:09:53.328;$GNGGA,170953.000,5102.13740,N,01344.15277,E,1,22,0.63,113.2,M,44.5,M,,*79;$GNGGA,170953.000,05102.1374,N,01344.1528,E,2,22,0.63,113.2,M,44.5,M,,*42;0;0.0035126971360887947;81.0;0.0;3.150000016452054
2023-01-24 18:09:54.173;$GNGGA,170954.000,5102.13740,N,01344.15275,E,1,21,0.63,113.2,M,44.5,M,,*7F;$GNGGA,170954.000,05102.1374,N,01344.1528,E,2,21,0.63,113.2,M,44.5,M,,*46;0;0.0035383372611697346;81.0;0.0;3.150000016452054
2023-01-24 18:09:55.150;$GNGGA,170955.000,5102.13742,N,01344.15272,E,1,21,0.63,113.2,M,44.5,M,,*7B;$GNGGA,170955.000,05102.1374,N,01344.1527,E,2,21,0.63,113.2,M,44.5,M,,*48;0;0.0035126971360887947;81.0;0.0;3.150000016452054
2023-01-24 18:09:56.326;$GNGGA,170956.000,5102.13742,N,01344.15271,E,1,22,0.63,113.3,M,44.5,M,,*79;$GNGGA,170956.000,05102.1374,N,01344.1527,E,2,22,0.63,113.3,M,44.5,M,,*49;0;0.0035126971360887947;81.0;0.0;3.150000016452054
2023-01-24 18:09:58.156;$GNGGA,170958.000,5102.13744,N,01344.15268,E,1,21,0.63,113.3,M,44.5,M,,*7A;$GNGGA,170958.000,05102.1374,N,01344.1527,E,2,21,0.63,113.3,M,44.5,M,,*44;0;0.0035126971360887947;81.0;0.0;3.150000016452054
2023-01-24 18:09:59.397;$GNGGA,170959.000,5102.13744,N,01344.15266,E,1,21,0.63,113.3,M,44.5,M,,*75;$GNGGA,170959.000,05102.1374,N,01344.1527,E,2,21,0.63,113.3,M,44.5,M,,*45;0;0.0035383372611697346;81.0;0.0;3.150000016452054
2023-01-24 18:10:00.219;$GNGGA,171000.000,5102.13745,N,01344.15264,E,1,21,0.63,113.3,M,44.5,M,,*72;$GNGGA,171000.000,05102.1374,N,01344.1526,E,2,21,0.63,113.3,M,44.5,M,,*40;0;0.0035126971360887947;81.0;0.0;3.150000016452054
2023-01-24 18:10:01.155;$GNGGA,171001.000,5102.13746,N,01344.15263,E,1,21,0.63,113.3,M,44.5,M,,*77;$GNGGA,171001.000,05102.1375,N,01344.1526,E,2,21,0.63,113.3,M,44.5,M,,*40;0;0.0035383372611697346;81.0;0.0;3.150000016452054
2023-01-24 18:10:02.321;$GNGGA,171002.000,5102.13747,N,01344.15262,E,1,22,0.63,113.4,M,44.5,M,,*70;$GNGGA,171002.000,05102.1375,N,01344.1526,E,2,22,0.63,113.4,M,44.5,M,,*47;0;0.0035126971360887947;81.0;0.0;3.150000016452054
2023-01-24 18:10:04.150;$GNGGA,171004.000,5102.13748,N,01344.15257,E,1,21,0.66,113.4,M,44.5,M,,*79;$GNGGA,171004.000,05102.1375,N,01344.1526,E,2,21,0.66,113.4,M,44.5,M,,*47;0;0.0035126971360887947;81.0;0.0;3.150000016452054
