date;NMEA_rover;NMEA_corrected;NMEA_base;tether_length;compass;depth;accuracy
2023-01-24 17:20:48.179,$GNGGA,162048.000,5102.13617,N,01344.15201,E,1,19,0.62,132.3,M,44.5,M,,*70;$GNGGA,162048.000,05102.1362,N,01344.1520,E,2,19,0.62,132.3,M,44.5,M,,*46;0;0.0035126971360887947;81.0;0.0;3.150000016452054
2023-01-24 17:20:49.162,$GNGGA,162049.000,5102.13618,N,01344.15206,E,1,20,0.63,132.3,M,44.5,M,,*72;$GNGGA,162049.000,05102.1362,N,01344.1521,E,2,20,0.63,132.3,M,44.5,M,,*4D;0;0.0035126971360887947;81.0;0.0;3.1500000166931064
2023-01-24 17:20:50.316,$GNGGA,162050.000,5102.13620,N,01344.15211,E,1,19,0.63,132.3,M,44.5,M,,*7D;$GNGGA,162050.000,05102.1362,N,01344.1521,E,2,19,0.63,132.3,M,44.5,M,,*4F;0;0.0035126971360887947;81.0;0.0;3.150000016452054
2023-01-24 17:20:52.186,$GNGGA,162052.000,5102.13624,N,01344.15221,E,1,19,0.64,132.3,M,44.5,M,,*7F;$GNGGA,162052.000,05102.1362,N,01344.1522,E,2,19,0.64,132.3,M,44.5,M,,*49;0;0.0035383372611697346;81.0;0.0;3.150000016452054
2023-01-24 17:20:53.301,$GNGGA,162053.000,5102.13628,N,01344.15226,E,1,20,0.61,132.2,M,44.5,M,,*7B;$GNGGA,162053.000,05102.1363,N,01344.1523,E,2,20,0.61,132.2,M,44.5,M,,*46;0;0.0035126971360887947;81.0;0.0;3.150000016452054
2023-01-24 17:20:54.149,$GNGGA,162054.000,5102.13632,N,01344.15233,E,1,19,0.63,132.2,M,44.5,M,,*7B;$GNGGA,162054.000,05102.1363,N,01344.1523,E,2,19,0.63,132.2,M,44.5,M,,*49;0;0.0035126971360887947;81.0;0.0;3.150000016452054
2023-01-24 17:20:55.209,$GNGGA,162055.000,5102.13634,N,01344.15239,E,1,19,0.63,132.2,M,44.5,M,,*76;$GNGGA,162055.000,05102.1363,N,01344.1524,E,2,19,0.63,132.2,M,44.5,M,,*4F;0;0.0035126971360887947;81.0;0.0;3.1500000166931064
2023-01-24 17:20:56.270,$GNGGA,162056.000,5102.13637,N,01344.15244,E,1,21,0.58,132.2,M,44.5,M,,*7F;$GNGGA,162056.000,05102.1364,N,01344.1524,E,2,21,0.58,132.2,M,44.5,M,,*48;0;0.0035126971360887947;81.0;0.0;3.150000016452054
2023-01-24 17:20:57.211,$GNGGA,162057.000,5102.13638,N,01344.15249,E,1,20,0.61,132.2,M,44.5,M,,*77;$GNGGA,162057.000,05102.1364,N,01344.1525,E,2,20,0.61,132.2,M,44.5,M,,*43;0;0.0035126971360887947;81.0;0.0;3.150000016452054
2023-01-24 17:20:58.204,$GNGGA,162058.000,5102.13639,N,01344.15251,E,1,20,0.60,132.1,M,44.5,M,,*72;$GNGGA,162058.000,05102.1364,N,01344.1525,E,2,20,0.60,132.1,M,44.5,M,,*4E;0;0.0035126971360887947;81.0;0.0;3.150000016452054
2023-01-24 17:20:59.302,$GNGGA,162059.000,5102.13640,N,01344.15254,E,1,19,0.63,132.1,M,44.5,M,,*71;$GNGGA,162059.000,05102.1364,N,01344.1525,E,2,19,0.63,132.1,M,44.5,M,,*46;0;0.0035126971360887947;81.0;0.0;3.150000016452054
2023-01-24 17:21:01.171,$GNGGA,162101.000,5102.13641,N,01344.15255,E,1,20,0.58,132.1,M,44.5,M,,*7F;$GNGGA,162101.000,05102.1364,N,01344.1526,E,2,20,0.58,132.1,M,44.5,M,,*4B;0;0.0035383372611697346;81.0;0.0;3.1500000166931064
2023-01-24 17:21:02.314,$GNGGA,162102.000,5102.13641,N,01344.15256,E,1,18,0.63,132.1,M,44.5,M,,*7C;$GNGGA,162102.000,05102.1364,N,01344.1526,E,2,18,0.63,132.1,M,44.5,M,,*4B;0;0.0035126971360887947;81.0;0.0;3.150000016452054
2023-01-24 17:21:04.213,$GNGGA,162104.000,5102.13640,N,01344.15256,E,1,20,0.60,132.1,M,44.5,M,,*73;$GNGGA,162104.000,05102.1364,N,01344.1526,E,2,20,0.60,132.1,M,44.5,M,,*45;0;0.0035383372611697346;81.0;0.0;3.1500000166931064
2023-01-24 17:21:05.198,$GNGGA,162105.000,5102.13640,N,01344.15256,E,1,19,0.60,132.1,M,44.5,M,,*78;$GNGGA,162105.000,05102.1364,N,01344.1526,E,2,19,0.60,132.1,M,44.5,M,,*4E;0;0.0035126971360887947;81.0;0.0;3.150000016452054
2023-01-24 17:21:06.184,$GNGGA,162106.000,5102.13641,N,01344.15254,E,1,18,0.63,132.1,M,44.5,M,,*7A;$GNGGA,162106.000,05102.1364,N,01344.1525,E,2,18,0.63,132.1,M,44.5,M,,*4C;0;0.0035126971360887947;81.0;0.0;3.150000016452054
2023-01-24 17:21:07.218,$GNGGA,162107.000,5102.13641,N,01344.15253,E,1,17,0.65,132.1,M,44.5,M,,*75;$GNGGA,162107.000,05102.1364,N,01344.1525,E,2,17,0.65,132.1,M,44.5,M,,*44;0;0.0035126971360887947;81.0;0.0;3.1500000166931064
2023-01-24 17:21:08.232,$GNGGA,162108.000,5102.13642,N,01344.15252,E,1,19,0.61,132.1,M,44.5,M,,*72;$GNGGA,162108.000,05102.1364,N,01344.1525,E,2,19,0.61,132.1,M,44.5,M,,*41;0;0.0035383372611697346;81.0;0.0;3.150000016452054
2023-01-24 17:21:10.153,$GNGGA,162110.000,5102.13643,N,01344.15250,E,1,21,0.60,132.0,M,44.5,M,,*73;$GNGGA,162110.000,05102.1364,N,01344.1525,E,2,21,0.60,132.0,M,44.5,M,,*43;0;0.0035126971360887947;81.0;0.0;3.150000016452054
2023-01-24 17:21:11.299,$GNGGA,162111.000,5102.13644,N,01344.15250,E,1,19,0.62,132.0,M,44.5,M,,*7C;$GNGGA,162111.000,05102.1364,N,01344.1525,E,2,19,0.62,132.0,M,44.5,M,,*4B;0;0.0035126971360887947;81.0;0.0;3.1500000166931064
2023-01-24 17:21:12.166,$GNGGA,162112.000,5102.13645,N,01344.15251,E,1,18,0.63,132.0,M,44.5,M,,*7F;$GNGGA,162112.000,05102.1364,N,01344.1525,E,2,18,0.63,132.0,M,44.5,M,,*48;0;0.0035126971360887947;81.0;0.0;3.150000016452054
2023-01-24 17:21:13.157,$GNGGA,162113.000,5102.13646,N,01344.15250,E,1,21,0.60,132.0,M,44.5,M,,*75;$GNGGA,162113.000,05102.1365,N,01344.1525,E,2,21,0.60,132.0,M,44.5,M,,*41;0;0.0035126971360887947;81.0;0.0;3.150000016452054
2023-01-24 17:21:14.298,$GNGGA,162114.000,5102.13646,N,01344.15249,E,1,21,0.60,132.0,M,44.5,M,,*7A;$GNGGA,162114.000,05102.1365,N,01344.1525,E,2,21,0.60,132.0,M,44.5,M,,*46;0;0.0035126971360887947;81.0;0.0;3.150000016452054
2023-01-24 17:21:16.141,$GNGGA,162116.000,5102.13646,N,01344.15241,E,1,19,0.62,131.9,M,44.5,M,,*73;$GNGGA,162116.000,05102.1365,N,01344.1524,E,2,19,0.62,131.9,M,44.5,M,,*46;0;0.0035383372611697346;81.0;0.0;3.150000016452054
2023-01-24 17:21:17.283,$GNGGA,162117.000,5102.13646,N,01344.15239,E,1,19,0.66,131.9,M,44.5,M,,*79;$GNGGA,162117.000,05102.1365,N,01344.1524,E,2,19,0.66,131.9,M,44.5,M,,*43;0;0.0035126971360887947;81.0;0.0;3.1500000166931064
2023-01-24 17:21:20.248,$GNGGA,162120.000,5102.13644,N,01344.15231,E,1,21,0.60,132.0,M,44.5,M,,*70;$GNGGA,162120.000,05102.1364,N,01344.1523,E,2,21,0.60,132.0,M,44.5,M,,*46;0;0.0035126971360887947;81.0;0.0;3.150000016452054
2023-01-24 17:21:23.333,$GNGGA,162123.000,5102.13639,N,01344.15227,E,1,22,0.58,132.0,M,44.5,M,,*76;$GNGGA,162123.000,05102.1364,N,01344.1523,E,2,22,0.58,132.0,M,44.5,M,,*4D;0;0.0035126971360887947;81.0;0.0;3.150000016452054
2023-01-24 17:21:29.150,$GNGGA,162129.000,5102.13638,N,01344.15215,E,1,15,0.72,132.0,M,44.5,M,,*70;$GNGGA,162129.000,05102.1364,N,01344.1522,E,2,15,0.72,132.0,M,44.5,M,,*4A;0;0.0035126971360887947;81.0;0.0;3.1500000166931064
2023-01-24 17:21:31.224,$GNGGA,162131.000,5102.13640,N,01344.15216,E,1,15,0.72,132.0,M,44.5,M,,*75;$GNGGA,162131.000,05102.1364,N,01344.1522,E,2,15,0.72,132.0,M,44.5,M,,*43;0;0.0035383372611697346;81.0;0.0;3.150000016452054
2023-01-24 17:21:32.166,$GNGGA,162132.000,5102.13641,N,01344.15216,E,1,19,0.63,132.0,M,44.5,M,,*7B;$GNGGA,162132.000,05102.1364,N,01344.1522,E,2,19,0.63,132.0,M,44.5,M,,*4C;0;0.0035126971360887947;81.0;0.0;3.150000016452054
2023-01-24 17:21:34.208,$GNGGA,162134.000,5102.13643,N,01344.15214,E,1,21,0.60,131.9,M,44.5,M,,*7F;$GNGGA,162134.000,05102.1364,N,01344.1521,E,2,21,0.60,131.9,M,44.5,M,,*4B;0;0.0035126971360887947;81.0;0.0;3.150000016452054
2023-01-24 17:21:35.261,$GNGGA,162135.000,5102.13644,N,01344.15214,E,1,20,0.63,131.9,M,44.5,M,,*7B;$GNGGA,162135.000,05102.1364,N,01344.1521,E,2,20,0.63,131.9,M,44.5,M,,*48;0;0.0035126971360887947;81.0;0.0;3.1500000166931064
2023-01-24 17:21:37.160,$GNGGA,162137.000,5102.13645,N,01344.15214,E,1,20,0.63,131.8,M,44.5,M,,*79;$GNGGA,162137.000,05102.1364,N,01344.1521,E,2,20,0.63,131.8,M,44.5,M,,*4B;0;0.0035126971360887947;81.0;0.0;3.150000016452054
2023-01-24 17:21:38.324,$GNGGA,162138.000,5102.13646,N,01344.15214,E,1,20,0.64,131.8,M,44.5,M,,*72;$GNGGA,162138.000,05102.1365,N,01344.1521,E,2,20,0.64,131.8,M,44.5,M,,*42;0;0.0035126971360887947;81.0;0.0;3.150000016452054
2023-01-24 17:21:40.171,$GNGGA,162140.000,5102.13647,N,01344.15214,E,1,19,0.69,131.8,M,44.5,M,,*7B;$GNGGA,162140.000,05102.1365,N,01344.1521,E,2,19,0.69,131.8,M,44.5,M,,*4A;0;0.0035126971360887947;81.0;0.0;3.150000016452054
2023-01-24 17:21:41.273,$GNGGA,162141.000,5102.13648,N,01344.15215,E,1,19,0.69,131.8,M,44.5,M,,*74;$GNGGA,162141.000,05102.1365,N,01344.1522,E,2,19,0.69,131.8,M,44.5,M,,*48;0;0.0035126971360887947;81.0;0.0;3.150000016452054
2023-01-24 17:21:43.176,$GNGGA,162143.000,5102.13652,N,01344.15216,E,1,16,0.72,131.8,M,44.5,M,,*7B;$GNGGA,162143.000,05102.1365,N,01344.1522,E,2,16,0.72,131.8,M,44.5,M,,*4F;0;0.0035126971360887947;81.0;0.0;3.1500000166931064
2023-01-24 17:21:44.269,$GNGGA,162144.000,5102.13653,N,01344.15217,E,1,17,0.65,131.8,M,44.5,M,,*7B;$GNGGA,162144.000,05102.1365,N,01344.1522,E,2,17,0.65,131.8,M,44.5,M,,*4F;0;0.0035126971360887947;81.0;0.0;3.150000016452054
2023-01-24 17:21:46.156,$GNGGA,162146.000,5102.13656,N,01344.15218,E,1,16,0.68,131.7,M,44.5,M,,*70;$GNGGA,162146.000,05102.1366,N,01344.1522,E,2,16,0.68,131.7,M,44.5,M,,*4D;0;0.0035126971360887947;81.0;0.0;3.150000016452054
2023-01-24 17:21:47.246,$GNGGA,162147.000,5102.13658,N,01344.15219,E,1,18,0.64,131.7,M,44.5,M,,*7C;$GNGGA,162147.000,05102.1366,N,01344.1522,E,2,18,0.64,131.7,M,44.5,M,,*4E;0;0.0035126971360887947;81.0;0.0;3.1500000166931064
2023-01-24 17:21:49.209,$GNGGA,162149.000,5102.13660,N,01344.15220,E,1,20,0.61,131.7,M,44.5,M,,*7D;$GNGGA,162149.000,05102.1366,N,01344.1522,E,2,20,0.61,131.7,M,44.5,M,,*4E;0;0.0035126971360887947;81.0;0.0;3.150000016452054
2023-01-24 17:21:50.232,$GNGGA,162150.000,5102.13661,N,01344.15221,E,1,15,0.72,131.7,M,44.5,M,,*71;$GNGGA,162150.000,05102.1366,N,01344.1522,E,2,15,0.72,131.7,M,44.5,M,,*42;0;0.0035383372611697346;81.0;0.0;3.150000016452054
2023-01-24 17:21:52.138,$GNGGA,162152.000,5102.13663,N,01344.15224,E,1,15,0.72,131.7,M,44.5,M,,*74;$GNGGA,162152.000,05102.1366,N,01344.1522,E,2,15,0.72,131.7,M,44.5,M,,*40;0;0.0035126971360887947;81.0;0.0;3.150000016452054
2023-01-24 17:21:53.318,$GNGGA,162153.000,5102.13665,N,01344.15222,E,1,20,0.60,131.7,M,44.5,M,,*70;$GNGGA,162153.000,05102.1366,N,01344.1522,E,2,20,0.60,131.7,M,44.5,M,,*44;0;0.0035126971360887947;81.0;0.0;3.150000016452054
2023-01-24 17:21:54.198,$GNGGA,162154.000,5102.13668,N,01344.15222,E,1,19,0.60,131.7,M,44.5,M,,*70;$GNGGA,162154.000,05102.1367,N,01344.1522,E,2,19,0.60,131.7,M,44.5,M,,*48;0;0.0035126971360887947;81.0;0.0;3.150000016452054
2023-01-24 17:21:55.179,$GNGGA,162155.000,5102.13669,N,01344.15222,E,1,18,0.63,131.7,M,44.5,M,,*72;$GNGGA,162155.000,05102.1367,N,01344.1522,E,2,18,0.63,131.7,M,44.5,M,,*4B;0;0.0035126971360887947;81.0;0.0;3.150000016452054
2023-01-24 17:21:56.303,$GNGGA,162156.000,5102.13671,N,01344.15222,E,1,19,0.61,131.7,M,44.5,M,,*7B;$GNGGA,162156.000,05102.1367,N,01344.1522,E,2,19,0.61,131.7,M,44.5,M,,*4B;0;0.0035383372611697346;81.0;0.0;3.150000016452054
2023-01-24 17:21:57.230,$GNGGA,162157.000,5102.13673,N,01344.15224,E,1,19,0.61,131.6,M,44.5,M,,*7F;$GNGGA,162157.000,05102.1367,N,01344.1522,E,2,19,0.61,131.6,M,44.5,M,,*4B;0;0.0035126971360887947;81.0;0.0;3.150000016452054
2023-01-24 17:21:58.186,$GNGGA,162158.000,5102.13675,N,01344.15224,E,1,19,0.61,131.6,M,44.5,M,,*76;$GNGGA,162158.000,05102.1367,N,01344.1522,E,2,19,0.61,131.6,M,44.5,M,,*44;0;0.0035126971360887947;81.0;0.0;3.150000016452054
2023-01-24 17:21:59.315,$GNGGA,162159.000,5102.13678,N,01344.15223,E,1,18,0.64,131.6,M,44.5,M,,*79;$GNGGA,162159.000,05102.1368,N,01344.1522,E,2,18,0.64,131.6,M,44.5,M,,*4E;0;0.0035126971360887947;81.0;0.0;3.150000016452054
2023-01-24 17:22:00.220,$GNGGA,162200.000,5102.13680,N,01344.15221,E,1,19,0.63,131.6,M,44.5,M,,*75;$GNGGA,162200.000,05102.1368,N,01344.1522,E,2,19,0.63,131.6,M,44.5,M,,*47;0;0.0035126971360887947;81.0;0.0;3.150000016452054
2023-01-24 17:22:01.186,$GNGGA,162201.000,5102.13681,N,01344.15219,E,1,17,0.65,131.7,M,44.5,M,,*77;$GNGGA,162201.000,05102.1368,N,01344.1522,E,2,17,0.65,131.7,M,44.5,M,,*4F;0;0.0035126971360887947;81.0;0.0;3.1500000166931064
2023-01-24 17:22:02.317,$GNGGA,162202.000,5102.13682,N,01344.15217,E,1,20,0.61,131.7,M,44.5,M,,*79;$GNGGA,162202.000,05102.1368,N,01344.1522,E,2,20,0.61,131.7,M,44.5,M,,*4C;0;0.0035383372611697346;81.0;0.0;3.150000016452054
2023-01-24 17:22:04.151,$GNGGA,162204.000,5102.13683,N,01344.15217,E,1,18,0.63,131.7,M,44.5,M,,*77;$GNGGA,162204.000,05102.1368,N,01344.1522,E,2,18,0.63,131.7,M,44.5,M,,*43;0;0.0035126971360887947;81.0;0.0;3.150000016452054
2023-01-24 17:22:05.311,$GNGGA,162205.000,5102.13684,N,01344.15217,E,1,18,0.63,131.8,M,44.5,M,,*7E;$GNGGA,162205.000,05102.1368,N,01344.1522,E,2,18,0.63,131.8,M,44.5,M,,*4D;0;0.0035126971360887947;81.0;0.0;3.150000016452054
2023-01-24 17:22:07.158,$GNGGA,162207.000,5102.13685,N,01344.15216,E,1,20,0.61,131.8,M,44.5,M,,*75;$GNGGA,162207.000,05102.1368,N,01344.1522,E,2,20,0.61,131.8,M,44.5,M,,*46;0;0.0035126971360887947;81.0;0.0;3.150000016452054
2023-01-24 17:22:08.289,$GNGGA,162208.000,5102.13687,N,01344.15218,E,1,20,0.61,131.8,M,44.5,M,,*76;$GNGGA,162208.000,05102.1369,N,01344.1522,E,2,20,0.61,131.8,M,44.5,M,,*48;0;0.0035126971360887947;81.0;0.0;3.150000016452054
2023-01-24 17:22:10.204,$GNGGA,162210.000,5102.13689,N,01344.15218,E,1,20,0.61,131.8,M,44.5,M,,*71;$GNGGA,162210.000,05102.1369,N,01344.1522,E,2,20,0.61,131.8,M,44.5,M,,*41;0;0.0035126971360887947;81.0;0.0;3.150000016452054
2023-01-24 17:22:11.287,$GNGGA,162211.000,5102.13690,N,01344.15218,E,1,20,0.61,131.8,M,44.5,M,,*78;$GNGGA,162211.000,05102.1369,N,01344.1522,E,2,20,0.61,131.8,M,44.5,M,,*40;0;0.0035126971360887947;81.0;0.0;3.150000016452054
2023-01-24 17:22:12.187,$GNGGA,162212.000,5102.13691,N,01344.15217,E,1,20,0.61,131.8,M,44.5,M,,*75;$GNGGA,162212.000,05102.1369,N,01344.1522,E,2,20,0.61,131.8,M,44.5,M,,*43;0;0.0035126971360887947;81.0;0.0;3.150000016452054
2023-01-24 17:22:13.143,$GNGGA,162213.000,5102.13693,N,01344.15216,E,1,19,0.62,131.8,M,44.5,M,,*7E;$GNGGA,162213.000,05102.1369,N,01344.1522,E,2,19,0.62,131.8,M,44.5,M,,*4B;0;0.0035126971360887947;81.0;0.0;3.150000016452054
2023-01-24 17:22:14.288,$GNGGA,162214.000,5102.13694,N,01344.15214,E,1,19,0.62,131.8,M,44.5,M,,*7C;$GNGGA,162214.000,05102.1369,N,01344.1521,E,2,19,0.62,131.8,M,44.5,M,,*4F;0;0.0035126971360887947;81.0;0.0;3.150000016452054
2023-01-24 17:22:16.154,$GNGGA,162216.000,5102.13696,N,01344.15213,E,1,19,0.62,131.8,M,44.5,M,,*7B;$GNGGA,162216.000,05102.1370,N,01344.1521,E,2,19,0.62,131.8,M,44.5,M,,*45;0;0.0035383372611697346;81.0;0.0;3.150000016452054
2023-01-24 17:22:17.286,$GNGGA,162217.000,5102.13697,N,01344.15212,E,1,19,0.62,131.8,M,44.5,M,,*7A;$GNGGA,162217.000,05102.1370,N,01344.1521,E,2,19,0.62,131.8,M,44.5,M,,*44;0;0.0035126971360887947;81.0;0.0;3.150000016452054
2023-01-24 17:22:18.178,$GNGGA,162218.000,5102.13697,N,01344.15213,E,1,19,0.62,131.9,M,44.5,M,,*75;$GNGGA,162218.000,05102.1370,N,01344.1521,E,2,19,0.62,131.9,M,44.5,M,,*4A;0;0.0035126971360887947;81.0;0.0;3.150000016452054
2023-01-24 17:22:19.122,$GNGGA,162219.000,5102.13698,N,01344.15212,E,1,18,0.65,131.9,M,44.5,M,,*7C;$GNGGA,162219.000,05102.1370,N,01344.1521,E,2,18,0.65,131.9,M,44.5,M,,*4D;0;0.0035126971360887947;81.0;0.0;3.150000016452054
2023-01-24 17:22:20.287,$GNGGA,162220.000,5102.13698,N,01344.15212,E,1,19,0.62,132.0,M,44.5,M,,*7A;$GNGGA,162220.000,05102.1370,N,01344.1521,E,2,19,0.62,132.0,M,44.5,M,,*4B;0;0.0035126971360887947;81.0;0.0;3.150000016452054
2023-01-24 17:22:23.279,$GNGGA,162223.000,5102.13699,N,01344.15211,E,1,19,0.62,132.0,M,44.5,M,,*7B;$GNGGA,162223.000,05102.1370,N,01344.1521,E,2,19,0.62,132.0,M,44.5,M,,*48;0;0.0035126971360887947;81.0;0.0;3.150000016452054
2023-01-24 17:22:25.146,$GNGGA,162225.000,5102.13699,N,01344.15209,E,1,18,0.65,132.1,M,44.5,M,,*73;$GNGGA,162225.000,05102.1370,N,01344.1521,E,2,18,0.65,132.1,M,44.5,M,,*49;0;0.0035126971360887947;81.0;0.0;3.150000016452054
2023-01-24 17:22:26.258,$GNGGA,162226.000,5102.13698,N,01344.15208,E,1,18,0.65,132.2,M,44.5,M,,*73;$GNGGA,162226.000,05102.1370,N,01344.1521,E,2,18,0.65,132.2,M,44.5,M,,*49;0;0.0035126971360887947;81.0;0.0;3.150000016452054
2023-01-24 17:22:27.199,$GNGGA,162227.000,5102.13696,N,01344.15210,E,1,18,0.65,132.3,M,44.5,M,,*74;$GNGGA,162227.000,05102.1370,N,01344.1521,E,2,18,0.65,132.3,M,44.5,M,,*49;0;0.0035126971360887947;81.0;0.0;3.1500000166931064
2023-01-24 17:22:28.205,$GNGGA,162228.000,5102.13697,N,01344.15210,E,1,18,0.65,132.4,M,44.5,M,,*7D;$GNGGA,162228.000,05102.1370,N,01344.1521,E,2,18,0.65,132.4,M,44.5,M,,*41;0;0.0035383372611697346;81.0;0.0;3.1500000166931064
2023-01-24 17:22:29.342,$GNGGA,162229.000,5102.13699,N,01344.15212,E,1,18,0.65,132.4,M,44.5,M,,*70;$GNGGA,162229.000,05102.1370,N,01344.1521,E,2,18,0.65,132.4,M,44.5,M,,*40;0;0.0035126971360887947;81.0;0.0;3.150000016452054
2023-01-24 17:22:30.176,$GNGGA,162230.000,5102.13701,N,01344.15214,E,1,18,0.65,132.4,M,44.5,M,,*7E;$GNGGA,162230.000,05102.1370,N,01344.1521,E,2,18,0.65,132.4,M,44.5,M,,*48;0;0.0035383372611697346;81.0;0.0;3.1500000166931064
2023-01-24 17:22:31.191,$GNGGA,162231.000,5102.13703,N,01344.15216,E,1,18,0.65,132.4,M,44.5,M,,*7F;$GNGGA,162231.000,05102.1370,N,01344.1522,E,2,18,0.65,132.4,M,44.5,M,,*4A;0;0.0035383372611697346;81.0;0.0;3.1500000166931064
2023-01-24 17:22:32.282,$GNGGA,162232.000,5102.13705,N,01344.15218,E,1,19,0.62,132.4,M,44.5,M,,*72;$GNGGA,162232.000,05102.1370,N,01344.1522,E,2,19,0.62,132.4,M,44.5,M,,*4F;0;0.0035126971360887947;81.0;0.0;3.150000016452054
2023-01-24 17:22:34.132,$GNGGA,162234.000,5102.13707,N,01344.15223,E,1,18,0.65,132.5,M,44.5,M,,*79;$GNGGA,162234.000,05102.1371,N,01344.1522,E,2,18,0.65,132.5,M,44.5,M,,*4F;0;0.0035126971360887947;81.0;0.0;3.150000016452054
2023-01-24 17:22:35.287,$GNGGA,162235.000,5102.13708,N,01344.15225,E,1,19,0.62,132.5,M,44.5,M,,*77;$GNGGA,162235.000,05102.1371,N,01344.1523,E,2,19,0.62,132.5,M,44.5,M,,*49;0;0.0035126971360887947;81.0;0.0;3.150000016452054
2023-01-24 17:22:36.204,$GNGGA,162236.000,5102.13710,N,01344.15226,E,1,19,0.62,132.5,M,44.5,M,,*7E;$GNGGA,162236.000,05102.1371,N,01344.1523,E,2,19,0.62,132.5,M,44.5,M,,*4A;0;0.0035126971360887947;81.0;0.0;3.150000016452054
2023-01-24 17:22:37.158,$GNGGA,162237.000,5102.13711,N,01344.15227,E,1,19,0.62,132.5,M,44.5,M,,*7F;$GNGGA,162237.000,05102.1371,N,01344.1523,E,2,19,0.62,132.5,M,44.5,M,,*4B;0;0.0035126971360887947;81.0;0.0;3.150000016452054
2023-01-24 17:22:38.297,$GNGGA,162238.000,5102.13713,N,01344.15230,E,1,19,0.62,132.5,M,44.5,M,,*74;$GNGGA,162238.000,05102.1371,N,01344.1523,E,2,19,0.62,132.5,M,44.5,M,,*44;0;0.0035126971360887947;81.0;0.0;3.150000016452054
2023-01-24 17:22:40.158,$GNGGA,162240.000,5102.13715,N,01344.15244,E,1,20,0.62,132.5,M,44.5,M,,*74;$GNGGA,162240.000,05102.1371,N,01344.1524,E,2,20,0.62,132.5,M,44.5,M,,*46;0;0.0035126971360887947;81.0;0.0;3.150000016452054
2023-01-24 17:22:41.296,$GNGGA,162241.000,5102.13717,N,01344.15253,E,1,20,0.62,132.5,M,44.5,M,,*71;$GNGGA,162241.000,05102.1372,N,01344.1525,E,2,20,0.62,132.5,M,44.5,M,,*45;0;0.0035126971360887947;81.0;0.0;3.150000016452054
2023-01-24 17:22:43.179,$GNGGA,162243.000,5102.13722,N,01344.15270,E,1,20,0.62,132.5,M,44.5,M,,*74;$GNGGA,162243.000,05102.1372,N,01344.1527,E,2,20,0.62,132.5,M,44.5,M,,*45;0;0.0035383372611697346;81.0;0.0;3.1500000166931064
2023-01-24 17:22:44.209,$GNGGA,162244.000,5102.13725,N,01344.15278,E,1,19,0.62,132.5,M,44.5,M,,*76;$GNGGA,162244.000,05102.1372,N,01344.1528,E,2,19,0.62,132.5,M,44.5,M,,*47;0;0.0035126971360887947;81.0;0.0;3.150000016452054
2023-01-24 17:22:47.233,$GNGGA,162247.000,5102.13731,N,01344.15292,E,1,18,0.65,132.5,M,44.5,M,,*72;$GNGGA,162247.000,05102.1373,N,01344.1529,E,2,18,0.65,132.5,M,44.5,M,,*42;0;0.0035126971360887947;81.0;0.0;3.150000016452054
2023-01-24 17:22:48.163,$GNGGA,162248.000,5102.13732,N,01344.15295,E,1,19,0.62,132.5,M,44.5,M,,*7F;$GNGGA,162248.000,05102.1373,N,01344.1530,E,2,19,0.62,132.5,M,44.5,M,,*43;0;0.0035383372611697346;81.0;0.0;3.1500000166931064
2023-01-24 17:22:49.164,$GNGGA,162249.000,5102.13734,N,01344.15297,E,1,19,0.62,132.5,M,44.5,M,,*7A;$GNGGA,162249.000,05102.1373,N,01344.1530,E,2,19,0.62,132.5,M,44.5,M,,*42;0;0.0035126971360887947;81.0;0.0;3.150000016452054
2023-01-24 17:22:50.239,$GNGGA,162250.000,5102.13736,N,01344.15298,E,1,19,0.63,132.5,M,44.5,M,,*7E;$GNGGA,162250.000,05102.1374,N,01344.1530,E,2,19,0.63,132.5,M,44.5,M,,*4C;0;0.0035126971360887947;81.0;0.0;3.150000016452054
2023-01-24 17:22:51.198,$GNGGA,162251.000,5102.13737,N,01344.15296,E,1,20,0.60,132.5,M,44.5,M,,*79;$GNGGA,162251.000,05102.1374,N,01344.1530,E,2,20,0.60,132.5,M,44.5,M,,*44;0;0.0035126971360887947;81.0;0.0;3.150000016452054
2023-01-24 17:22:52.155,$GNGGA,162252.000,5102.13738,N,01344.15295,E,1,20,0.60,132.5,M,44.5,M,,*76;$GNGGA,162252.000,05102.1374,N,01344.1530,E,2,20,0.60,132.5,M,44.5,M,,*47;0;0.0035383372611697346;81.0;0.0;3.1500000166931064
2023-01-24 17:22:53.291,$GNGGA,162253.000,5102.13740,N,01344.15293,E,1,19,0.62,132.5,M,44.5,M,,*76;$GNGGA,162253.000,05102.1374,N,01344.1529,E,2,19,0.62,132.5,M,44.5,M,,*46;0;0.0035126971360887947;81.0;0.0;3.150000016452054
2023-01-24 17:22:54.148,$GNGGA,162254.000,5102.13741,N,01344.15290,E,1,20,0.61,132.5,M,44.5,M,,*7A;$GNGGA,162254.000,05102.1374,N,01344.1529,E,2,20,0.61,132.5,M,44.5,M,,*48;0;0.0035126971360887947;81.0;0.0;3.150000016452054
2023-01-24 17:22:55.246,$GNGGA,162255.000,5102.13742,N,01344.15288,E,1,21,0.60,132.6,M,44.5,M,,*72;$GNGGA,162255.000,05102.1374,N,01344.1529,E,2,21,0.60,132.6,M,44.5,M,,*4A;0;0.0035126971360887947;81.0;0.0;3.150000016452054
2023-01-24 17:22:56.165,$GNGGA,162256.000,5102.13743,N,01344.15286,E,1,21,0.60,132.6,M,44.5,M,,*7E;$GNGGA,162256.000,05102.1374,N,01344.1529,E,2,21,0.60,132.6,M,44.5,M,,*49;0;0.0035126971360887947;81.0;0.0;3.150000016452054
2023-01-24 17:22:59.159,$GNGGA,162259.000,5102.13745,N,01344.15285,E,1,21,0.60,132.7,M,44.5,M,,*75;$GNGGA,162259.000,05102.1374,N,01344.1529,E,2,21,0.60,132.7,M,44.5,M,,*47;0;0.0035126971360887947;81.0;0.0;3.150000016452054
